country,state,city,station,last_update,latitude,longitude,pollutant_id,pollutant_min,pollutant_max,pollutant_avg
India,Bihar,"Bihar Sharif","D M Colony, Bihar Sharif - BSPCB","08-04-2025 20:00:00",25.204762,85.514960,CO,10,12,11
India,Bihar,"Bihar Sharif","D M Colony, Bihar Sharif - BSPCB","08-04-2025 20:00:00",25.204762,85.514960,OZONE,21,37,31
India,Bihar,Buxar,"Charitra Van, Buxar - BSPCB","08-04-2025 20:00:00",25.567520,83.966379,PM10,NA,NA,NA
India,Bihar,Buxar,"Charitra Van, Buxar - BSPCB","08-04-2025 20:00:00",25.567520,83.966379,NO2,NA,NA,NA
India,Bihar,Chhapra,"Darshan Nagar, Chhapra - BSPCB","08-04-2025 20:00:00",25.7808257,84.7446768,NO2,4,127,24
India,Bihar,Chhapra,"Darshan Nagar, Chhapra - BSPCB","08-04-2025 20:00:00",25.7808257,84.7446768,NH3,4,9,5
India,Bihar,Chhapra,"Darshan Nagar, Chhapra - BSPCB","08-04-2025 20:00:00",25.7808257,84.7446768,SO2,2,104,16
India,Bihar,Gaya,"Collectorate, Gaya - BSPCB","08-04-2025 20:00:00",24.7955,84.9994,PM2.5,30,211,88
India,Bihar,Gaya,"Kareemganj, Gaya - BSPCB","08-04-2025 20:00:00",24.792403,84.992416,PM10,88,203,130
India,Andhra_Pradesh,Vijayawada,"Rajiv Nagar, Vijayawada - APPCB","08-04-2025 20:00:00",16.554731,80.649110,NH3,NA,NA,NA
India,Andhra_Pradesh,Vijayawada,"Rajiv Nagar, Vijayawada - APPCB","08-04-2025 20:00:00",16.554731,80.649110,CO,34,44,38
India,Andhra_Pradesh,Visakhapatnam,"GVM Corporation, Visakhapatnam - APPCB","08-04-2025 20:00:00",17.72,83.3,NH3,NA,NA,NA
India,Andhra_Pradesh,Visakhapatnam,"GVM Corporation, Visakhapatnam - APPCB","08-04-2025 20:00:00",17.72,83.3,CO,8,114,61
India,Assam,Byrnihat,"Central Academy for SFS, Byrnihat - PCBA","08-04-2025 20:00:00",26.071318,91.87488,PM10,53,438,232
India,Assam,Byrnihat,"Central Academy for SFS, Byrnihat - PCBA","08-04-2025 20:00:00",26.071318,91.87488,CO,41,60,54
India,Assam,Byrnihat,"Central Academy for SFS, Byrnihat - PCBA","08-04-2025 20:00:00",26.071318,91.87488,OZONE,21,66,38
India,"Andaman and Nicobar","Sri Vijaya Puram","Police Line, Sri Vijaya Puram - ANPCC","08-04-2025 20:00:00",11.654054,92.734055,PM10,5,35,16
India,"Andaman and Nicobar","Sri Vijaya Puram","Police Line, Sri Vijaya Puram - ANPCC","08-04-2025 20:00:00",11.654054,92.734055,CO,12,59,16
India,Andhra_Pradesh,Amaravati,"Secretariat, Amaravati - APPCB","08-04-2025 20:00:00",16.5150833,80.5181667,NH3,NA,NA,NA
India,Andhra_Pradesh,Anantapur,"Gulzarpet, Anantapur - APPCB","08-04-2025 20:00:00",14.675886,77.593027,CO,15,20,19
India,Andhra_Pradesh,Chittoor,"Gangineni Cheruvu, Chittoor - APPCB","08-04-2025 20:00:00",13.204880,79.097889,PM2.5,37,91,63
India,Assam,Sivasagar,"Girls College, Sivasagar - PCBA","08-04-2025 20:00:00",26.987634,94.636574,PM2.5,9,97,72
India,Assam,Sivasagar,"Girls College, Sivasagar - PCBA","08-04-2025 20:00:00",26.987634,94.636574,PM10,65,98,86
India,Assam,Sivasagar,"Girls College, Sivasagar - PCBA","08-04-2025 20:00:00",26.987634,94.636574,NH3,2,6,4
India,Bihar,Araria,"Kharahiya Basti, Araria - BSPCB","08-04-2025 20:00:00",26.146529,87.454184,SO2,22,56,28
India,Bihar,Arrah,"New DM Office, Arrah - BSPCB","08-04-2025 20:00:00",25.5626095,84.663264,SO2,8,10,9
India,Bihar,Arrah,"New DM Office, Arrah - BSPCB","08-04-2025 20:00:00",25.5626095,84.663264,OZONE,2,123,82
India,Andhra_Pradesh,Tirumala,"Toll Gate, Tirumala - APPCB (Formerly known as Tirumala, Tirupati - APPCB)","08-04-2025 20:00:00",13.67,79.35,NH3,1,2,1
India,Andhra_Pradesh,Tirumala,"Toll Gate, Tirumala - APPCB (Formerly known as Tirumala, Tirupati - APPCB)","08-04-2025 20:00:00",13.67,79.35,SO2,3,21,7
India,Andhra_Pradesh,Tirupati,"Vaikuntapuram, Tirupati - APPCB","08-04-2025 20:00:00",13.615387,79.409230,PM2.5,37,427,95
India,Andhra_Pradesh,Tirupati,"Vaikuntapuram, Tirupati - APPCB","08-04-2025 20:00:00",13.615387,79.409230,CO,12,22,18
India,Andhra_Pradesh,Tirupati,"Vaikuntapuram, Tirupati - APPCB","08-04-2025 20:00:00",13.615387,79.409230,OZONE,80,87,84
India,Assam,Guwahati,"IITG, Guwahati - PCBA","08-04-2025 20:00:00",26.2028636,91.70046436,OZONE,1,78,41
India,Assam,Guwahati,"LGBI Airport, Guwahati - PCBA","08-04-2025 20:00:00",26.10887,91.589544,PM10,NA,NA,NA
India,Assam,Guwahati,"LGBI Airport, Guwahati - PCBA","08-04-2025 20:00:00",26.10887,91.589544,CO,19,47,26
India,Assam,Guwahati,"Railway Colony, Guwahati - PCBA","08-04-2025 20:00:00",26.181742,91.78063,PM10,94,336,176
India,Assam,Guwahati,"Railway Colony, Guwahati - PCBA","08-04-2025 20:00:00",26.181742,91.78063,OZONE,1,62,27
India,Andhra_Pradesh,Rajamahendravaram,"Anand Kala Kshetram, Rajamahendravaram - APPCB","08-04-2025 20:00:00",16.9872867,81.7363176,CO,14,81,30
India,Andhra_Pradesh,Tirumala,"Toll Gate, Tirumala - APPCB (Formerly known as Tirumala, Tirupati - APPCB)","08-04-2025 20:00:00",13.67,79.35,PM2.5,33,61,45
India,Andhra_Pradesh,Vijayawada,"Rajiv Gandhi Park, Vijayawada - APPCB","08-04-2025 20:00:00",16.509717,80.612222,PM2.5,53,104,76
India,Bihar,Aurangabad,"Gurdeo Nagar, Aurangabad - BSPCB","08-04-2025 20:00:00",24.75746,84.366208,PM2.5,38,283,149
India,Bihar,Bhagalpur,"Mayaganj, Bhagalpur - BSPCB","08-04-2025 20:00:00",25.265194,87.012947,OZONE,1,10,4
India,Bihar,Gaya,"Kareemganj, Gaya - BSPCB","08-04-2025 20:00:00",24.792403,84.992416,NH3,4,7,5
India,Bihar,Gaya,"Kareemganj, Gaya - BSPCB","08-04-2025 20:00:00",24.792403,84.992416,SO2,15,18,16
India,Bihar,Gaya,"Kareemganj, Gaya - BSPCB","08-04-2025 20:00:00",24.792403,84.992416,CO,32,67,50
India,Bihar,Gaya,"SFTI Kusdihra, Gaya - BSPCB","08-04-2025 20:00:00",24.762518,84.982348,PM10,66,113,86
India,Bihar,Gaya,"SFTI Kusdihra, Gaya - BSPCB","08-04-2025 20:00:00",24.762518,84.982348,NO2,19,25,23
India,Bihar,Hajipur,"Industrial Area, Hajipur - BSPCB","08-04-2025 20:00:00",25.697189,85.245900,CO,28,36,32
India,Bihar,Katihar,"Mirchaibari, Katihar - BSPCB","08-04-2025 20:00:00",25.560083,87.553265,CO,16,42,29
India,Bihar,Kishanganj,"SDM Office_Khagra, Kishanganj - BSPCB","08-04-2025 20:00:00",26.0881305,87.93840336,NO2,2,4,3
India,Bihar,Manguraha,"Forest Rest House, Manguraha - BSPCB","08-04-2025 20:00:00",27.308328,84.531742,PM10,73,177,103
India,Bihar,Manguraha,"Forest Rest House, Manguraha - BSPCB","08-04-2025 20:00:00",27.308328,84.531742,SO2,5,7,6
India,Bihar,Manguraha,"Forest Rest House, Manguraha - BSPCB","08-04-2025 20:00:00",27.308328,84.531742,OZONE,10,33,23
India,Bihar,Motihari,"Gandak Colony, Motihari - BSPCB","08-04-2025 20:00:00",26.63086,84.90051,NO2,15,28,20
India,Bihar,Motihari,"Gandak Colony, Motihari - BSPCB","08-04-2025 20:00:00",26.63086,84.90051,OZONE,11,13,12
India,Bihar,Munger,"Town Hall, Munger - BSPCB","08-04-2025 20:00:00",25.376776,86.471523,SO2,NA,NA,NA
India,Bihar,Munger,"Town Hall, Munger - BSPCB","08-04-2025 20:00:00",25.376776,86.471523,OZONE,2,7,4
India,Bihar,Muzaffarpur,"Buddha Colony, Muzaffarpur - BSPCB","08-04-2025 20:00:00",26.11442,85.39813,PM10,86,156,115
India,Bihar,Muzaffarpur,"Buddha Colony, Muzaffarpur - BSPCB","08-04-2025 20:00:00",26.11442,85.39813,NO2,4,9,6
India,Bihar,Muzaffarpur,"Buddha Colony, Muzaffarpur - BSPCB","08-04-2025 20:00:00",26.11442,85.39813,SO2,4,17,9
India,Bihar,Muzaffarpur,"MIT-Daudpur Kothi, Muzaffarpur - BSPCB","08-04-2025 20:00:00",26.1403345,85.3650192,PM10,14,133,64
India,Bihar,Muzaffarpur,"MIT-Daudpur Kothi, Muzaffarpur - BSPCB","08-04-2025 20:00:00",26.1403345,85.3650192,NO2,13,17,14
India,Bihar,Muzaffarpur,"MIT-Daudpur Kothi, Muzaffarpur - BSPCB","08-04-2025 20:00:00",26.1403345,85.3650192,NH3,2,5,2
India,Bihar,Muzaffarpur,"MIT-Daudpur Kothi, Muzaffarpur - BSPCB","08-04-2025 20:00:00",26.1403345,85.3650192,SO2,5,10,6
India,Bihar,Patna,"DRM Office Danapur, Patna - BSPCB","08-04-2025 20:00:00",25.586562,85.043586,SO2,3,5,4
India,Bihar,Patna,"DRM Office Danapur, Patna - BSPCB","08-04-2025 20:00:00",25.586562,85.043586,OZONE,14,34,26
India,Bihar,Patna,"Govt. High School Shikarpur, Patna - BSPCB","08-04-2025 20:00:00",25.592539,85.227158,PM10,90,130,111
India,Bihar,Patna,"IGSC Planetarium Complex, Patna - BSPCB","08-04-2025 20:00:00",25.610369,85.132568,OZONE,39,43,42
India,Bihar,Patna,"Muradpur, Patna - BSPCB","08-04-2025 20:00:00",25.619651,85.147382,NH3,1,51,6
India,Bihar,Patna,"Muradpur, Patna - BSPCB","08-04-2025 20:00:00",25.619651,85.147382,CO,16,64,41
India,Bihar,Patna,"Rajbansi Nagar, Patna - BSPCB","08-04-2025 20:00:00",25.599486,85.113666,PM10,73,112,98
India,Bihar,Patna,"Samanpura, Patna - BSPCB","08-04-2025 20:00:00",25.596727,85.085624,NO2,39,52,45
India,Bihar,Patna,"Samanpura, Patna - BSPCB","08-04-2025 20:00:00",25.596727,85.085624,OZONE,80,128,114
India,Bihar,Purnia,"Mariam Nagar, Purnia - BSPCB","08-04-2025 20:00:00",25.366336,87.117468,PM2.5,NA,NA,NA
India,Bihar,Purnia,"Mariam Nagar, Purnia - BSPCB","08-04-2025 20:00:00",25.366336,87.117468,PM10,NA,NA,NA
India,Bihar,Purnia,"Mariam Nagar, Purnia - BSPCB","08-04-2025 20:00:00",25.366336,87.117468,SO2,NA,NA,NA
India,Chandigarh,Chandigarh,"Sector 22, Chandigarh - CPCC","08-04-2025 20:00:00",30.735567,76.775714,PM10,75,284,138
India,Chandigarh,Chandigarh,"Sector-25, Chandigarh - CPCC","08-04-2025 20:00:00",30.751462,76.762879,CO,20,86,27
India,Chandigarh,Chandigarh,"Sector-53, Chandigarh - CPCC","08-04-2025 20:00:00",30.719859,76.738637,SO2,6,18,9
India,Chhattisgarh,Bhilai,"32Bungalows, Bhilai - CECB","08-04-2025 20:00:00",21.194815,81.314770,NO2,7,84,30
India,Chhattisgarh,Bhilai,"32Bungalows, Bhilai - CECB","08-04-2025 20:00:00",21.194815,81.314770,SO2,13,39,18
India,Chhattisgarh,Bhilai,"Civic Center, Bhilai - Bhilai Steel Plant","08-04-2025 20:00:00",21.185571,81.343175,PM10,33,103,65
India,Bihar,Saharsa,"Police Line, Saharsa - BSPCB","08-04-2025 20:00:00",25.892357,86.590325,OZONE,20,74,45
India,Bihar,Samastipur,"DM Office_Kasipur, Samastipur - BSPCB","08-04-2025 20:00:00",25.859655,85.77944,CO,17,51,34
India,Bihar,Sasaram,"Dada Peer, Sasaram - BSPCB","08-04-2025 20:00:00",24.952822,84.002396,PM10,83,131,101
India,Bihar,Sasaram,"Dada Peer, Sasaram - BSPCB","08-04-2025 20:00:00",24.952822,84.002396,CO,48,55,51
India,Bihar,Siwan,"Chitragupta Nagar, Siwan - BSPCB","08-04-2025 20:00:00",26.2271665,84.3570427,PM2.5,NA,NA,NA
India,Bihar,Siwan,"Chitragupta Nagar, Siwan - BSPCB","08-04-2025 20:00:00",26.2271665,84.3570427,SO2,4,8,6
India,Chhattisgarh,Korba,"Rampur, Korba - CECB","08-04-2025 20:00:00",22.368195,82.746431,CO,36,48,38
India,Chhattisgarh,Kunjemura,"OP Jindal School, Kunjemura - CECB","08-04-2025 20:00:00",22.126650,83.483212,NH3,NA,NA,NA
India,Chhattisgarh,Kunjemura,"OP Jindal School, Kunjemura - CECB","08-04-2025 20:00:00",22.126650,83.483212,SO2,NA,NA,NA
India,Chhattisgarh,Milupara,"Govt. Higher Secondary School, Milupara - CECB","08-04-2025 20:00:00",22.1910172,83.5197009,NO2,22,71,44
India,Chhattisgarh,Milupara,"Govt. Higher Secondary School, Milupara - CECB","08-04-2025 20:00:00",22.1910172,83.5197009,SO2,11,65,30
India,Delhi,Delhi,"Ashok Vihar, Delhi - DPCC","08-04-2025 20:00:00",28.695381,77.181665,OZONE,3,295,221
India,Delhi,Delhi,"Bawana, Delhi - DPCC","08-04-2025 20:00:00",28.776200,77.051074,PM10,171,340,251
India,Delhi,Delhi,"Burari Crossing, Delhi - IMD","08-04-2025 20:00:00",28.7256504,77.2011573,PM2.5,1,328,195
India,Chhattisgarh,Bilaspur,"Mangala, Bilaspur - NTPC","08-04-2025 20:00:00",22.08815,82.13737,NO2,17,55,27
India,Chhattisgarh,Korba,"Rampur, Korba - CECB","08-04-2025 20:00:00",22.368195,82.746431,PM2.5,43,91,66
India,Gujarat,Ahmedabad,"Raikhad, Ahmedabad - IITM","08-04-2025 20:00:00",23.020509,72.579261,NO2,13,78,29
India,Gujarat,Ahmedabad,"Raikhad, Ahmedabad - IITM","08-04-2025 20:00:00",23.020509,72.579261,SO2,10,22,16
India,Gujarat,Ahmedabad,"Rakhial, Ahmedabad - IITM","08-04-2025 20:00:00",23.016834,72.625775,PM2.5,48,334,120
India,Gujarat,Ahmedabad,"Rakhial, Ahmedabad - IITM","08-04-2025 20:00:00",23.016834,72.625775,PM10,62,315,126
India,Gujarat,Ahmedabad,"Rakhial, Ahmedabad - IITM","08-04-2025 20:00:00",23.016834,72.625775,NH3,6,14,8
India,Gujarat,Ahmedabad,"SAC ISRO Bopal, Ahmedabad - IITM","08-04-2025 20:00:00",23.041137,72.456691,NO2,12,43,20
India,Gujarat,Ahmedabad,"SAC ISRO Bopal, Ahmedabad - IITM","08-04-2025 20:00:00",23.041137,72.456691,CO,9,104,25
India,Gujarat,Ahmedabad,"SAC ISRO Satellite, Ahmedabad - IITM","08-04-2025 20:00:00",23.023389,72.515201,OZONE,40,90,78
India,Delhi,Delhi,"Burari Crossing, Delhi - IMD","08-04-2025 20:00:00",28.7256504,77.2011573,NO2,20,30,26
India,Delhi,Delhi,"Chandni Chowk, Delhi - IITM","08-04-2025 20:00:00",28.656756,77.227234,NO2,NA,NA,NA
India,Delhi,Delhi,"Chandni Chowk, Delhi - IITM","08-04-2025 20:00:00",28.656756,77.227234,CO,107,133,115
India,Delhi,Delhi,"DTU, Delhi - CPCB","08-04-2025 20:00:00",28.7500499,77.1112615,PM10,167,381,254
India,Delhi,Delhi,"DTU, Delhi - CPCB","08-04-2025 20:00:00",28.7500499,77.1112615,NH3,11,18,13
India,Delhi,Delhi,"Dr. Karni Singh Shooting Range, Delhi - DPCC","08-04-2025 20:00:00",28.498571,77.264840,PM2.5,90,303,206
India,Delhi,Delhi,"Dr. Karni Singh Shooting Range, Delhi - DPCC","08-04-2025 20:00:00",28.498571,77.264840,SO2,25,41,35
India,Delhi,Delhi,"Dwarka-Sector 8, Delhi - DPCC ","08-04-2025 20:00:00",28.5710274,77.0719006,PM2.5,123,302,212
India,Delhi,Delhi,"Dwarka-Sector 8, Delhi - DPCC ","08-04-2025 20:00:00",28.5710274,77.0719006,PM10,167,332,220
India,Delhi,Delhi,"IGI Airport (T3), Delhi - IMD","08-04-2025 20:00:00",28.5627763,77.1180053,NO2,50,166,101
India,Delhi,Delhi,"IGI Airport (T3), Delhi - IMD","08-04-2025 20:00:00",28.5627763,77.1180053,OZONE,5,169,130
India,Delhi,Delhi,"IHBAS, Dilshad Garden, Delhi - CPCB","08-04-2025 20:00:00",28.6811736,77.3025234,NH3,10,13,11
India,Delhi,Delhi,"ITO, Delhi - CPCB","08-04-2025 20:00:00",28.628624,77.241060,PM2.5,101,316,213
India,Delhi,Delhi,"Mundka, Delhi - DPCC","08-04-2025 20:00:00",28.684678,77.076574,PM10,199,439,284
India,Delhi,Delhi,"Mundka, Delhi - DPCC","08-04-2025 20:00:00",28.684678,77.076574,CO,2,82,9
India,Delhi,Delhi,"Mundka, Delhi - DPCC","08-04-2025 20:00:00",28.684678,77.076574,OZONE,7,170,140
India,Delhi,Delhi,"Najafgarh, Delhi - DPCC","08-04-2025 20:00:00",28.570173,76.933762,CO,17,103,51
India,Delhi,Delhi,"Narela, Delhi - DPCC","08-04-2025 20:00:00",28.822836,77.101981,PM2.5,97,374,273
India,Delhi,Delhi,"Nehru Nagar, Delhi - DPCC","08-04-2025 20:00:00",28.567890,77.250515,NO2,20,118,67
India,Delhi,Delhi,"Shadipur, Delhi - CPCB","08-04-2025 20:00:00",28.6514781,77.1473105,SO2,2,37,14
India,Delhi,Delhi,"Sirifort, Delhi - CPCB","08-04-2025 20:00:00",28.5504249,77.2159377,PM2.5,124,322,259
India,Delhi,Delhi,"Sri Aurobindo Marg, Delhi - DPCC","08-04-2025 20:00:00",28.531346,77.190156,PM2.5,77,276,179
India,Delhi,Delhi,"Sri Aurobindo Marg, Delhi - DPCC","08-04-2025 20:00:00",28.531346,77.190156,OZONE,9,207,156
India,Delhi,Delhi,"Vivek Vihar, Delhi - DPCC","08-04-2025 20:00:00",28.672342,77.315260,NH3,1,4,3
India,Delhi,Delhi,"Wazirpur, Delhi - DPCC","08-04-2025 20:00:00",28.699793,77.165453,CO,27,108,79
India,Gujarat,Ahmedabad,"Chandkheda, Ahmedabad - IITM","08-04-2025 20:00:00",23.107969,72.574648,PM10,70,154,103
India,Gujarat,Ahmedabad,"Gyaspur, Ahmedabad - IITM","08-04-2025 20:00:00",22.977134,72.553024,PM10,NA,NA,NA
India,Gujarat,Ahmedabad,"Gyaspur, Ahmedabad - IITM","08-04-2025 20:00:00",22.977134,72.553024,NO2,9,99,40
India,Gujarat,Ahmedabad,"Gyaspur, Ahmedabad - IITM","08-04-2025 20:00:00",22.977134,72.553024,OZONE,8,125,98
India,Delhi,Delhi,"North Campus, DU, Delhi - IMD","08-04-2025 20:00:00",28.6573814,77.1585447,PM2.5,125,343,218
India,Delhi,Delhi,"North Campus, DU, Delhi - IMD","08-04-2025 20:00:00",28.6573814,77.1585447,NO2,23,141,78
India,Delhi,Delhi,"Punjabi Bagh, Delhi - DPCC","08-04-2025 20:00:00",28.674045,77.131023,PM10,153,371,210
India,Delhi,Delhi,"Punjabi Bagh, Delhi - DPCC","08-04-2025 20:00:00",28.674045,77.131023,NO2,2,104,61
India,Delhi,Delhi,"Punjabi Bagh, Delhi - DPCC","08-04-2025 20:00:00",28.674045,77.131023,SO2,4,30,20
India,Delhi,Delhi,"Lodhi Road, Delhi - IMD","08-04-2025 20:00:00",28.5918245,77.2273074,OZONE,32,127,95
India,Delhi,Delhi,"Major Dhyan Chand National Stadium, Delhi - DPCC","08-04-2025 20:00:00",28.611281,77.237738,NO2,19,165,96
India,Delhi,Delhi,"R K Puram, Delhi - DPCC","08-04-2025 20:00:00",28.563262,77.186937,PM10,164,399,232
India,Delhi,Delhi,"R K Puram, Delhi - DPCC","08-04-2025 20:00:00",28.563262,77.186937,CO,2,144,26
India,Delhi,Delhi,"R K Puram, Delhi - DPCC","08-04-2025 20:00:00",28.563262,77.186937,OZONE,12,78,62
India,Karnataka,Kalaburagi,"Mahatma Basaveswar Colony, Kalaburgi - KSPCB","08-04-2025 20:00:00",17.336318,76.847397,PM2.5,25,66,36
India,Karnataka,Kalaburagi,"Mahatma Basaveswar Colony, Kalaburgi - KSPCB","08-04-2025 20:00:00",17.336318,76.847397,CO,30,78,42
India,Karnataka,Koppal,"Diwator Nagar, Koppal - KSPCB","08-04-2025 20:00:00",15.347630,76.181767,PM2.5,14,67,37
India,Karnataka,Madikeri,"Stuart Hill, Madikeri - KSPCB","08-04-2025 20:00:00",12.415911,75.735050,PM2.5,27,52,40
India,Karnataka,Madikeri,"Stuart Hill, Madikeri - KSPCB","08-04-2025 20:00:00",12.415911,75.735050,PM10,37,50,42
India,Karnataka,Madikeri,"Stuart Hill, Madikeri - KSPCB","08-04-2025 20:00:00",12.415911,75.735050,NH3,1,2,1
India,Karnataka,Madikeri,"Stuart Hill, Madikeri - KSPCB","08-04-2025 20:00:00",12.415911,75.735050,OZONE,3,6,4
India,Karnataka,Mangalore,"Kadri, Mangalore - KSPCB","08-04-2025 20:00:00",12.889250,74.853000,PM10,40,59,47
India,Karnataka,Mangalore,"Kadri, Mangalore - KSPCB","08-04-2025 20:00:00",12.889250,74.853000,NH3,1,1,1
India,Karnataka,Davanagere,"Devaraj Urs Badavane, Davanagere - KSPCB","08-04-2025 20:00:00",14.475800,75.905200,PM10,35,65,53
India,Karnataka,Davanagere,"Devaraj Urs Badavane, Davanagere - KSPCB","08-04-2025 20:00:00",14.475800,75.905200,NH3,2,2,2
India,Karnataka,Davanagere,"Devaraj Urs Badavane, Davanagere - KSPCB","08-04-2025 20:00:00",14.475800,75.905200,SO2,6,9,7
India,Karnataka,Dharwad,"Kalabhavan, Dharwad - KSPCB","08-04-2025 20:00:00",15.459706,75.008381,NH3,5,6,6
India,Karnataka,Dharwad,"Kalabhavan, Dharwad - KSPCB","08-04-2025 20:00:00",15.459706,75.008381,OZONE,6,49,33
India,Karnataka,Gadag,"Panchal Nagar, Gadag - KSPCB","08-04-2025 20:00:00",15.411456,75.638133,NO2,3,21,12
India,Karnataka,Gadag,"Panchal Nagar, Gadag - KSPCB","08-04-2025 20:00:00",15.411456,75.638133,NH3,1,4,2
India,Karnataka,Hubballi,"Lingaraj Nagar, Hubballi - KSPCB","08-04-2025 20:00:00",15.3714823,75.1160168,OZONE,11,29,25
India,Gujarat,Nandesari,"GIDC, Nandesari - Nandesari Ind. Association","08-04-2025 20:00:00",22.410802,73.097923,SO2,NA,NA,NA
India,Gujarat,Surat,"Science Center, Surat - SMC","08-04-2025 20:00:00",21.170046,72.795405,NO2,NA,NA,NA
India,Gujarat,Vapi,"Phase-1 GIDC, Vapi - GPCB","08-04-2025 20:00:00",20.362421,72.918013,PM2.5,40,192,79
India,Gujarat,Vapi,"Phase-1 GIDC, Vapi - GPCB","08-04-2025 20:00:00",20.362421,72.918013,NH3,10,10,10
India,Gujarat,Vatva,"Phase-4 GIDC, Vatva - GPCB","08-04-2025 20:00:00",22.969611,72.643500,NO2,38,95,54
India,Haryana,Gurugram,"NISE Gwal Pahari, Gurugram - IMD","08-04-2025 20:00:00",28.422681,77.148944,NO2,13,57,25
India,Gujarat,Ahmedabad,"SVPI Airport Hansol, Ahmedabad - IITM","08-04-2025 20:00:00",23.076793,72.627874,OZONE,1,61,44
India,Gujarat,Ahmedabad,"Sardar Vallabhbhai Patel Stadium, Ahmedabad - IITM","08-04-2025 20:00:00",23.043070,72.562968,PM2.5,54,333,113
India,Gujarat,Ahmedabad,"Sardar Vallabhbhai Patel Stadium, Ahmedabad - IITM","08-04-2025 20:00:00",23.043070,72.562968,CO,14,190,36
India,Gujarat,Ahmedabad,"Sardar Vallabhbhai Patel Stadium, Ahmedabad - IITM","08-04-2025 20:00:00",23.043070,72.562968,OZONE,5,72,53
India,Gujarat,Ankleshwar,"GIDC, Ankleshwar - GPCB","08-04-2025 20:00:00",21.613267,73.010555,PM10,59,114,78
India,Gujarat,Gandhinagar,"Sector-10, Gandhinagar - GPCB","08-04-2025 20:00:00",23.221714,72.654328,PM2.5,24,60,40
India,Karnataka,Bengaluru,"Kasturi Nagar, Bengaluru - KSPCB","08-04-2025 20:00:00",13.003872,77.664217,CO,18,52,31
India,Karnataka,Bengaluru,"Kasturi Nagar, Bengaluru - KSPCB","08-04-2025 20:00:00",13.003872,77.664217,OZONE,28,29,29
India,Karnataka,Bengaluru,"Peenya, Bengaluru - CPCB","08-04-2025 20:00:00",13.0270199,77.494094,NO2,12,24,20
India,Karnataka,Bengaluru,"Peenya, Bengaluru - CPCB","08-04-2025 20:00:00",13.0270199,77.494094,NH3,3,6,5
India,Karnataka,Bengaluru,"RVCE-Mailasandra, Bengaluru - KSPCB","08-04-2025 20:00:00",12.921418,77.502466,NO2,28,33,33
India,Karnataka,Bengaluru,"RVCE-Mailasandra, Bengaluru - KSPCB","08-04-2025 20:00:00",12.921418,77.502466,NH3,1,2,2
India,Karnataka,Bengaluru,"RVCE-Mailasandra, Bengaluru - KSPCB","08-04-2025 20:00:00",12.921418,77.502466,SO2,5,6,6
India,Haryana,Panchgaon,"Amity University, Panchgaon - IITM","08-04-2025 20:00:00",28.3153,76.9143,SO2,13,40,26
India,Haryana,Panchgaon,"Amity University, Panchgaon - IITM","08-04-2025 20:00:00",28.3153,76.9143,OZONE,59,281,91
India,"Himachal Pradesh",Baddi,"HIMUDA Complex Phase-1, Baddi - HPPCB","08-04-2025 20:00:00",30.943887,76.801991,CO,50,84,57
India,Jharkhand,Dhanbad,"Sardar Patel Nagar, Dhanbad - JSPCB","08-04-2025 20:00:00",23.80569,86.44268,PM2.5,2,92,40
India,Karnataka,Bengaluru,"City Railway Station, Bengaluru - KSPCB","08-04-2025 20:00:00",12.9756843,77.5660749,CO,58,98,73
India,Karnataka,Bengaluru,"Hebbal, Bengaluru - KSPCB","08-04-2025 20:00:00",13.029152,77.585901,PM2.5,27,85,52
India,Karnataka,Bengaluru,"Hombegowda Nagar, Bengaluru - KSPCB","08-04-2025 20:00:00",12.938539,77.590100,OZONE,36,186,171
India,Karnataka,Bengaluru,"Jayanagar 5th Block, Bengaluru - KSPCB","08-04-2025 20:00:00",12.920984,77.584908,CO,2,42,5
India,Karnataka,Bagalkot,"Vidayagiri, Bagalkot - KSPCB","08-04-2025 20:00:00",16.172806,75.659694,CO,2,36,22
India,Karnataka,Bagalkot,"Vidayagiri, Bagalkot - KSPCB","08-04-2025 20:00:00",16.172806,75.659694,OZONE,12,16,16
India,Karnataka,Belgaum,"Ramteerth Nagar, Belgaum - KSPCB","08-04-2025 20:00:00",15.888653,74.541751,NO2,NA,NA,NA
India,Karnataka,Belgaum,"Ramteerth Nagar, Belgaum - KSPCB","08-04-2025 20:00:00",15.888653,74.541751,CO,28,31,30
India,Karnataka,Bengaluru,"Silk Board, Bengaluru - KSPCB","08-04-2025 20:00:00",12.917348,77.622813,NO2,NA,NA,NA
India,Karnataka,Bidar,"Naubad, Bidar - KSPCB","08-04-2025 20:00:00",17.930306,77.482194,NO2,NA,NA,NA
India,Karnataka,Bidar,"Naubad, Bidar - KSPCB","08-04-2025 20:00:00",17.930306,77.482194,NH3,NA,NA,NA
India,Karnataka,Chikkamagaluru,"Kalyana Nagara, Chikkamagaluru - KSPCB","08-04-2025 20:00:00",13.328028,75.797056,NO2,NA,NA,NA
India,"Madhya Pradesh",Sagar,"Deen Dayal Nagar, Sagar - MPPCB","08-04-2025 20:00:00",23.8640158,78.80289321,SO2,10,11,11
India,"Madhya Pradesh",Satna,"Bandhavgar Colony, Satna - Birla Cement","08-04-2025 20:00:00",24.58434363,80.8549414,CO,18,27,18
India,"Madhya Pradesh",Singrauli,"Suryakiran Bhawan NCL, Singrauli - MPPCB","08-04-2025 20:00:00",24.108970,82.645580,NH3,2,10,6
India,"Madhya Pradesh",Singrauli,"Suryakiran Bhawan NCL, Singrauli - MPPCB","08-04-2025 20:00:00",24.108970,82.645580,CO,40,110,43
India,"Madhya Pradesh",Ujjain,"Mahakaleshwar Temple, Ujjain - MPPCB","08-04-2025 20:00:00","23.182719 ","75.768218 ",NO2,16,52,24
India,"Madhya Pradesh",Ujjain,"Mahakaleshwar Temple, Ujjain - MPPCB","08-04-2025 20:00:00","23.182719 ","75.768218 ",CO,21,111,37
India,Maharashtra,Ahmednagar,"Tarakpur, Ahmednagar - MPCB","08-04-2025 20:00:00",19.10122,74.73339,SO2,1,16,5
India,"Madhya Pradesh",Bhopal,"T T Nagar, Bhopal - MPPCB","08-04-2025 20:00:00",23.233584,77.400574,NH3,21,70,30
India,"Madhya Pradesh",Damoh,"Shrivastav Colony, Damoh - MPPCB","08-04-2025 20:00:00",23.81748678,79.446246,SO2,NA,NA,NA
India,"Madhya Pradesh",Dewas,"Bhopal Chauraha, Dewas - MPPCB","08-04-2025 20:00:00",22.9682591,76.064118,PM10,102,254,149
India,"Madhya Pradesh",Dewas,"Bhopal Chauraha, Dewas - MPPCB","08-04-2025 20:00:00",22.9682591,76.064118,NO2,80,135,96
India,"Madhya Pradesh",Dewas,"Bhopal Chauraha, Dewas - MPPCB","08-04-2025 20:00:00",22.9682591,76.064118,CO,15,88,22
India,"Madhya Pradesh",Gwalior,"City Center, Gwalior - MPPCB","08-04-2025 20:00:00",26.203442,78.193251,PM2.5,46,130,68
India,"Madhya Pradesh",Gwalior,"Deen Dayal Nagar, Gwalior - MPPCB","08-04-2025 20:00:00",26.259242,78.216432,PM10,76,270,155
India,"Madhya Pradesh",Gwalior,"Deen Dayal Nagar, Gwalior - MPPCB","08-04-2025 20:00:00",26.259242,78.216432,CO,11,63,24
India,Karnataka,Yadgir,"Collector Office, Yadgir - KSPCB","08-04-2025 20:00:00",16.7602,77.1428,SO2,8,23,15
India,Kerala,Eloor,"Udyogamandal, Eloor - Kerala PCB","08-04-2025 20:00:00",10.073232,76.302765,NH3,1,1,1
India,Kerala,Eloor,"Udyogamandal, Eloor - Kerala PCB","08-04-2025 20:00:00",10.073232,76.302765,SO2,3,3,3
India,Kerala,Kannur,"Thavakkara, Kannur - Kerala PCB","08-04-2025 20:00:00",11.875000,75.373200,PM10,59,70,63
India,Kerala,Kannur,"Thavakkara, Kannur - Kerala PCB","08-04-2025 20:00:00",11.875000,75.373200,CO,26,32,29
India,Kerala,Kollam,"Polayathode, Kollam - Kerala PCB","08-04-2025 20:00:00",8.8787,76.6073,NH3,1,1,1
India,Kerala,Thiruvananthapuram,"Kariavattom, Thiruvananthapuram - Kerala PCB","08-04-2025 20:00:00",8.563700,76.886500,SO2,3,10,6
India,Kerala,Thiruvananthapuram,"Kariavattom, Thiruvananthapuram - Kerala PCB","08-04-2025 20:00:00",8.563700,76.886500,CO,18,38,23
India,"Madhya Pradesh",Maihar,"Sahilara, Maihar - KJS Cements","08-04-2025 20:00:00",24.2613009,80.7231783,PM2.5,5,109,48
India,"Madhya Pradesh",Maihar,"Sahilara, Maihar - KJS Cements","08-04-2025 20:00:00",24.2613009,80.7231783,SO2,4,5,4
India,"Madhya Pradesh",Mandideep,"Sector-D Industrial Area, Mandideep - MPPCB","08-04-2025 20:00:00",23.108440,77.511428,OZONE,29,38,33
India,"Madhya Pradesh",Pithampur,"Sector-2 Industrial Area, Pithampur - MPPCB","08-04-2025 20:00:00",22.624758,75.675238,PM10,100,220,139
India,"Madhya Pradesh",Ratlam,"Shasthri Nagar, Ratlam - IPCA Lab","08-04-2025 20:00:00",23.331731,75.045981,PM10,64,193,123
India,"Madhya Pradesh",Sagar,"Civil Lines, Sagar - MPPCB","08-04-2025 20:00:00",23.838586,78.759431,NH3,2,2,2
India,Kerala,Thiruvananthapuram,"Plammoodu, Thiruvananthapuram - Kerala PCB","08-04-2025 20:00:00",8.5149093,76.9435879,OZONE,10,28,16
India,Kerala,Thrissur,"Corporation Ground, Thrissur - Kerala PCB","08-04-2025 20:00:00",10.532400,76.215900,NO2,8,10,9
India,Kerala,Thrissur,"Corporation Ground, Thrissur - Kerala PCB","08-04-2025 20:00:00",10.532400,76.215900,CO,21,34,26
India,"Madhya Pradesh",Bhopal,"Paryavaran Parisar, Bhopal - MPPCB","08-04-2025 20:00:00",23.210494,77.425409,PM2.5,22,177,95
India,"Madhya Pradesh",Bhopal,"Paryavaran Parisar, Bhopal - MPPCB","08-04-2025 20:00:00",23.210494,77.425409,NO2,2,126,50
India,"Madhya Pradesh",Bhopal,"Paryavaran Parisar, Bhopal - MPPCB","08-04-2025 20:00:00",23.210494,77.425409,SO2,5,29,13
India,"Madhya Pradesh",Bhopal,"T T Nagar, Bhopal - MPPCB","08-04-2025 20:00:00",23.233584,77.400574,PM2.5,32,118,66
India,"Madhya Pradesh",Gwalior,"Maharaj Bada, Gwalior - MPPCB","08-04-2025 20:00:00",26.200388,78.147714,NO2,2,4,3
India,"Madhya Pradesh",Gwalior,"Maharaj Bada, Gwalior - MPPCB","08-04-2025 20:00:00",26.200388,78.147714,CO,12,113,34
India,"Madhya Pradesh",Indore,"Airport Area, Indore - IMC","08-04-2025 20:00:00",22.7289,75.8076,PM10,42,113,74
India,"Madhya Pradesh",Indore,"Chhoti Gwaltoli, Indore - MPPCB","08-04-2025 20:00:00",22.4310,75.5213,SO2,8,52,16
India,"Madhya Pradesh",Indore,"Regional Park, Indore - IMC","08-04-2025 20:00:00",22.6780,75.8559,PM2.5,52,229,96
India,"Madhya Pradesh",Indore,"Regional Park, Indore - IMC","08-04-2025 20:00:00",22.6780,75.8559,PM10,NA,NA,NA
India,"Madhya Pradesh",Indore,"Residency Area, Indore - IMC","08-04-2025 20:00:00",22.7084,75.8815,SO2,31,36,33
India,Karnataka,Mysuru,"Hebbal 1st Stage, Mysuru - KSPCB","08-04-2025 20:00:00",12.21041,76.37376,NH3,3,6,5
India,Karnataka,Ramanagara,"Vijay Nagar, Ramanagara - KSPCB","08-04-2025 20:00:00",12.733409,77.298051,PM10,52,119,67
India,Karnataka,Shivamogga,"Vinoba Nagara, Shivamogga - KSPCB","08-04-2025 20:00:00",13.940000,75.555917,SO2,2,9,5
India,Karnataka,Shivamogga,"Vinoba Nagara, Shivamogga - KSPCB","08-04-2025 20:00:00",13.940000,75.555917,OZONE,19,79,64
India,Karnataka,Tumakuru,"Thimmalapura, Tumakuru - KSPCB","08-04-2025 20:00:00",13.377516,77.099072,NH3,2,2,2
India,Karnataka,Yadgir,"Collector Office, Yadgir - KSPCB","08-04-2025 20:00:00",16.7602,77.1428,PM10,48,114,79
India,"Madhya Pradesh",Jabalpur,"Govindh Bhavan Colony, Jabalpur - JMC","08-04-2025 20:00:00",23.163174,79.973061,NH3,1,2,1
India,"Madhya Pradesh",Jabalpur,"Gupteshwar, Jabalpur - JMC","08-04-2025 20:00:00",23.142888,79.916147,SO2,12,14,14
India,"Madhya Pradesh",Jabalpur,"Gupteshwar, Jabalpur - JMC","08-04-2025 20:00:00",23.142888,79.916147,OZONE,6,117,82
India,"Madhya Pradesh",Jabalpur,"Marhatal, Jabalpur - MPPCB","08-04-2025 20:00:00",23.168606,79.932247,NO2,24,107,45
India,"Madhya Pradesh",Jabalpur,"Marhatal, Jabalpur - MPPCB","08-04-2025 20:00:00",23.168606,79.932247,OZONE,3,108,78
India,Maharashtra,Akola,"Ramdaspeth, Akola - MPCB","08-04-2025 20:00:00",20.719516,77.000253,CO,30,84,39
India,Maharashtra,Akola,"Ramdaspeth, Akola - MPCB","08-04-2025 20:00:00",20.719516,77.000253,OZONE,1,98,73
India,Maharashtra,Amravati,"Shri Shivaji Science College, Amaravati - MPCB","08-04-2025 20:00:00",20.939198,77.765701,PM10,78,271,111
India,Maharashtra,Amravati,"Shri Shivaji Science College, Amaravati - MPCB","08-04-2025 20:00:00",20.939198,77.765701,CO,14,124,31
India,Maharashtra,Mumbai,"Khindipada-Bhandup West, Mumbai - IITM","08-04-2025 20:00:00",19.1653323,72.922099,SO2,3,64,21
India,Maharashtra,Mumbai,"Kurla, Mumbai - MPCB","08-04-2025 20:00:00",19.0863,72.8888,SO2,36,37,37
India,Maharashtra,Mumbai,"Kurla, Mumbai - MPCB","08-04-2025 20:00:00",19.0863,72.8888,CO,6,14,14
India,Maharashtra,Mumbai,"Kurla, Mumbai - MPCB","08-04-2025 20:00:00",19.0863,72.8888,OZONE,28,29,28
India,Maharashtra,Mumbai,"Malad West, Mumbai - IITM","08-04-2025 20:00:00",19.19709,72.82204,NH3,7,17,10
India,Maharashtra,Mumbai,"Mazgaon, Mumbai - IITM","08-04-2025 20:00:00",18.96702,72.84214,PM2.5,50,104,73
India,Maharashtra,Mumbai,"Mazgaon, Mumbai - IITM","08-04-2025 20:00:00",18.96702,72.84214,NH3,5,9,7
India,Maharashtra,Mumbai,"Navy Nagar-Colaba, Mumbai - IITM","08-04-2025 20:00:00",18.897756,72.813320,SO2,3,29,19
India,Maharashtra,Mumbai,"Deonar, Mumbai - IITM","08-04-2025 20:00:00",19.04946,72.9230,PM2.5,26,313,113
India,Maharashtra,Mumbai,"Deonar, Mumbai - IITM","08-04-2025 20:00:00",19.04946,72.9230,PM10,88,256,164
India,Maharashtra,Mumbai,"Ghatkopar, Mumbai - BMC","08-04-2025 20:00:00",19.083694,72.920967,OZONE,4,97,71
India,Maharashtra,Mumbai,"Kandivali East, Mumbai - MPCB","08-04-2025 20:00:00",19.205800,72.868200,SO2,NA,NA,NA
India,Maharashtra,Mumbai,"Kandivali West, Mumbai - BMC","08-04-2025 20:00:00",19.215859,72.831718,NO2,13,115,33
India,Maharashtra,Mumbai,"Kandivali West, Mumbai - BMC","08-04-2025 20:00:00",19.215859,72.831718,OZONE,1,106,77
India,Maharashtra,Mumbai,"Khindipada-Bhandup West, Mumbai - IITM","08-04-2025 20:00:00",19.1653323,72.922099,PM2.5,32,92,60
India,Maharashtra,Kolhapur,"Sinchan Bhavan, Kolhapur - MPCB","08-04-2025 20:00:00",16.7143745,74.2426398,PM10,69,107,83
India,Maharashtra,Kolhapur,"Sinchan Bhavan, Kolhapur - MPCB","08-04-2025 20:00:00",16.7143745,74.2426398,SO2,1,8,2
India,Maharashtra,Kolhapur,"Sinchan Bhavan, Kolhapur - MPCB","08-04-2025 20:00:00",16.7143745,74.2426398,OZONE,11,69,57
India,Maharashtra,Latur,"Sawe Wadi, Latur - MPCB","08-04-2025 20:00:00",18.39963,76.57452,NH3,5,64,22
India,Maharashtra,Latur,"Sawe Wadi, Latur - MPCB","08-04-2025 20:00:00",18.39963,76.57452,CO,2,117,20
India,Maharashtra,Mahad,"Kamble Tarf Birwadi, Mahad - MPCB","08-04-2025 20:00:00",18.1023399,73.4783687,OZONE,7,77,53
India,Maharashtra,Malegaon,"Mahesh Nagar, Malegaon - MPCB","08-04-2025 20:00:00",20.555712,74.529236,NH3,NA,NA,NA
India,Maharashtra,Boisar,"Khaira, Boisar - MPCB","08-04-2025 20:00:00",19.786089,72.757971,PM10,96,149,114
India,Maharashtra,Chandrapur,"Chauhan Colony, Chandrapur - MPCB","08-04-2025 20:00:00",19.962900,79.298714,PM10,NA,NA,NA
India,Maharashtra,Chandrapur,"Chauhan Colony, Chandrapur - MPCB","08-04-2025 20:00:00",19.962900,79.298714,NO2,NA,NA,NA
India,Maharashtra,Chandrapur,"Chauhan Colony, Chandrapur - MPCB","08-04-2025 20:00:00",19.962900,79.298714,NH3,NA,NA,NA
India,Maharashtra,Chandrapur,"Chauhan Colony, Chandrapur - MPCB","08-04-2025 20:00:00",19.962900,79.298714,SO2,NA,NA,NA
India,Maharashtra,Chandrapur,"MIDC Khutala, Chandrapur - MPCB","08-04-2025 20:00:00",19.9775302,79.2337086,NO2,31,35,33
India,Maharashtra,Dhule,"Deopur, Dhule - MPCB","08-04-2025 20:00:00",20.918946,74.776388,PM2.5,1,75,48
India,Maharashtra,Dhule,"Deopur, Dhule - MPCB","08-04-2025 20:00:00",20.918946,74.776388,PM10,50,114,76
India,Maharashtra,Jalgaon,"Prabhat Colony, Jalgaon - MPCB","08-04-2025 20:00:00",21.001264,75.565602,NO2,7,107,28
India,Maharashtra,Jalgaon,"Prabhat Colony, Jalgaon - MPCB","08-04-2025 20:00:00",21.001264,75.565602,SO2,8,33,13
India,Maharashtra,Jalna,"Old MIDC, Jalna - MPCB","08-04-2025 20:00:00",19.854616,75.905894,NO2,NA,NA,NA
India,Maharashtra,Kalyan,"Pimpleshwar Mandir, Kalyan - MPCB","08-04-2025 20:00:00",19.192056,72.9585188,NO2,8,35,18
India,Maharashtra,Kalyan,"Pimpleshwar Mandir, Kalyan - MPCB","08-04-2025 20:00:00",19.192056,72.9585188,SO2,2,15,7
India,Maharashtra,Kolhapur,"Shivaji University, Kolhapur - MPCB","08-04-2025 20:00:00",16.6870449,74.2505872,SO2,NA,NA,NA
India,Maharashtra,Aurangabad,"Rachnakar Colony, Aurangabad - MPCB","08-04-2025 20:00:00",19.863756,75.321188,PM2.5,46,86,69
India,Maharashtra,Aurangabad,"Rachnakar Colony, Aurangabad - MPCB","08-04-2025 20:00:00",19.863756,75.321188,NH3,2,4,3
India,Maharashtra,Badlapur,"Katrap, Badlapur - MPCB","08-04-2025 20:00:00",19.16485,73.23409,NO2,37,119,72
India,Maharashtra,Belapur,"CBD Belapur, Belapur - MPCB","08-04-2025 20:00:00",19.0243902,73.0406721,PM10,100,180,134
India,Maharashtra,Bhiwandi,"Gokul Nagar, Bhiwandi - MPCB","08-04-2025 20:00:00",19.309073,73.057223,SO2,13,104,22
India,Maharashtra,Mumbai,"Byculla, Mumbai - BMC","08-04-2025 20:00:00",18.9767,72.8380,PM2.5,25,75,48
India,Maharashtra,Mumbai,"Byculla, Mumbai - BMC","08-04-2025 20:00:00",18.9767,72.8380,PM10,49,85,66
India,Maharashtra,Mumbai,"Chakala-Andheri East, Mumbai - IITM","08-04-2025 20:00:00",19.11074,72.86084,CO,7,76,10
India,Maharashtra,Mumbai,"Chembur, Mumbai - MPCB","08-04-2025 20:00:00",19.0364585,72.8954371,NH3,9,16,12
India,Maharashtra,Mumbai,"Colaba, Mumbai - MPCB","08-04-2025 20:00:00",18.910000,72.820000,PM10,38,88,56
India,Maharashtra,Mumbai,"Navy Nagar-Colaba, Mumbai - IITM","08-04-2025 20:00:00",18.897756,72.813320,CO,1,32,18
India,Maharashtra,Mumbai,"Powai, Mumbai - MPCB","08-04-2025 20:00:00",19.137500,72.915056,OZONE,9,9,9
India,Maharashtra,Mumbai,"Shivaji Nagar, Mumbai - BMC","08-04-2025 20:00:00",19.060498,72.923356,PM2.5,62,94,74
India,Maharashtra,Mumbai,"Shivaji Nagar, Mumbai - BMC","08-04-2025 20:00:00",19.060498,72.923356,OZONE,2,125,89
India,Maharashtra,Mumbai,"Sion, Mumbai - MPCB","08-04-2025 20:00:00",19.047000,72.874600,CO,8,8,8
India,Maharashtra,Mumbai,"Bandra Kurla Complex, Mumbai - IITM","08-04-2025 20:00:00",19.053536,72.84643,CO,8,60,26
India,Maharashtra,Mumbai,"Bandra Kurla Complex, Mumbai - IITM","08-04-2025 20:00:00",19.053536,72.84643,OZONE,1,33,24
India,Maharashtra,Mumbai,"Bandra Kurla Complex, Mumbai - MPCB","08-04-2025 20:00:00",19.065931,72.862131,NH3,4,11,7
India,Maharashtra,Mumbai,"Borivali East, Mumbai - IITM","08-04-2025 20:00:00",19.23241,72.86895,PM10,53,126,100
India,Maharashtra,"Navi Mumbai","Sector-2E Kalamboli, Navi Mumbai - MPCB","08-04-2025 20:00:00",19.02579,73.10297,SO2,3,30,11
India,Maharashtra,"Navi Mumbai","Tondare-Taloja, Navi Mumbai - MPCB","08-04-2025 20:00:00",19.0630,73.1209,PM10,110,152,132
India,Maharashtra,"Navi Mumbai","Tondare-Taloja, Navi Mumbai - MPCB","08-04-2025 20:00:00",19.0630,73.1209,CO,5,16,9
India,Maharashtra,Parbhani,"Masoom Colony, Parbhani - MPCB","08-04-2025 20:00:00",19.265594,76.761463,NO2,12,90,35
India,Maharashtra,Pimpri-Chinchwad,"Gavalinagar, Pimpri Chinchwad - MPCB","08-04-2025 20:00:00",18.63673,73.82487,PM10,87,167,117
India,Maharashtra,Pimpri-Chinchwad,"Gavalinagar, Pimpri Chinchwad - MPCB","08-04-2025 20:00:00",18.63673,73.82487,NH3,7,10,8
India,Maharashtra,Pimpri-Chinchwad,"Gavalinagar, Pimpri Chinchwad - MPCB","08-04-2025 20:00:00",18.63673,73.82487,OZONE,1,97,70
India,Maharashtra,Pimpri-Chinchwad,"Park Street Wakad, Pimpri Chinchwad - MPCB","08-04-2025 20:00:00",18.59051,73.77946,NO2,29,93,58
India,Maharashtra,Pimpri-Chinchwad,"Park Street Wakad, Pimpri Chinchwad - MPCB","08-04-2025 20:00:00",18.59051,73.77946,SO2,3,13,9
India,Maharashtra,Pimpri-Chinchwad,"Park Street Wakad, Pimpri Chinchwad - MPCB","08-04-2025 20:00:00",18.59051,73.77946,CO,12,64,24
India,Maharashtra,Pimpri-Chinchwad,"Savta Mali Nagar, Pimpri-Chinchwad - IITM","08-04-2025 20:00:00",18.614767,73.799516,PM2.5,5,157,100
India,Maharashtra,Mumbai,"Vasai West, Mumbai - MPCB","08-04-2025 20:00:00",19.383200,72.820400,PM10,73,140,99
India,Maharashtra,Mumbai,"Vasai West, Mumbai - MPCB","08-04-2025 20:00:00",19.383200,72.820400,OZONE,6,8,7
India,Maharashtra,Mumbai,"Vile Parle West, Mumbai - MPCB","08-04-2025 20:00:00",19.10861,72.83622,PM10,69,156,95
India,Maharashtra,Mumbai,"Worli, Mumbai - MPCB","08-04-2025 20:00:00",18.9936162,72.8128113,SO2,6,14,8
India,Maharashtra,Mumbai,"Worli, Mumbai - MPCB","08-04-2025 20:00:00",18.9936162,72.8128113,CO,6,24,14
India,Maharashtra,Nagpur,"Ambazari, Nagpur - MPCB","08-04-2025 20:00:00",21.121801,79.04952,PM2.5,84,215,150
India,Maharashtra,Nagpur,"Ambazari, Nagpur - MPCB","08-04-2025 20:00:00",21.121801,79.04952,NO2,18,131,57
India,Maharashtra,Nagpur,"Opp GPO Civil Lines, Nagpur - MPCB","08-04-2025 20:00:00",21.152875,79.0517531,PM2.5,58,287,151
India,Maharashtra,Nagpur,"Opp GPO Civil Lines, Nagpur - MPCB","08-04-2025 20:00:00",21.152875,79.0517531,SO2,16,66,31
India,Maharashtra,Nagpur,"Ram Nagar, Nagpur - MPCB","08-04-2025 20:00:00",21.143383,79.048912,PM10,91,165,130
India,Maharashtra,Nagpur,"Ram Nagar, Nagpur - MPCB","08-04-2025 20:00:00",21.143383,79.048912,NO2,8,91,39
India,Maharashtra,Nagpur,"Ram Nagar, Nagpur - MPCB","08-04-2025 20:00:00",21.143383,79.048912,SO2,18,48,27
India,Maharashtra,Nanded,"Sneh Nagar, Nanded - MPCB","08-04-2025 20:00:00",19.173852,77.296291,PM10,36,143,80
India,Maharashtra,Nanded,"Sneh Nagar, Nanded - MPCB","08-04-2025 20:00:00",19.173852,77.296291,NH3,3,5,4
India,Maharashtra,Nanded,"Sneh Nagar, Nanded - MPCB","08-04-2025 20:00:00",19.173852,77.296291,SO2,1,18,8
India,Maharashtra,Nashik,"Gangapur Road, Nashik - MPCB","08-04-2025 20:00:00",20.0073285,73.7762427,SO2,5,23,10
India,Maharashtra,Nashik,"Hirawadi, Nashik - MPCB","08-04-2025 20:00:00",20.021503,73.813844,PM10,91,142,108
India,Maharashtra,Nashik,"Hirawadi, Nashik - MPCB","08-04-2025 20:00:00",20.021503,73.813844,NH3,2,8,4
India,Maharashtra,Nashik,"MIDC Ambad, Nashik - MPCB","08-04-2025 20:00:00",19.950220,73.731480,OZONE,22,96,69
India,Maharashtra,Nashik,"Pandav Nagari, Nashik - MPCB","08-04-2025 20:00:00",19.9591346,73.7788008,PM2.5,37,70,53
India,Maharashtra,Pune,"Panchawati_Pashan, Pune - IITM","08-04-2025 20:00:00",18.536457,73.805454,NO2,13,38,23
India,Maharashtra,Pune,"Panchawati_Pashan, Pune - IITM","08-04-2025 20:00:00",18.536457,73.805454,CO,4,111,67
India,Maharashtra,Pune,"Revenue Colony-Shivajinagar, Pune - IITM","08-04-2025 20:00:00",18.530085,73.849598,CO,28,74,46
India,Maharashtra,Pune,"Savitribai Phule Pune University, Pune - MPCB","08-04-2025 20:00:00",18.547056,73.826908,PM10,39,95,77
India,Maharashtra,Pune,"Savitribai Phule Pune University, Pune - MPCB","08-04-2025 20:00:00",18.547056,73.826908,NH3,1,5,3
India,Maharashtra,Pune,"Transport Nagar-Nigdi, Pune - IITM","08-04-2025 20:00:00",18.664282,73.763966,PM10,78,186,110
India,Maharashtra,Sangli,"Vijay Nagar, Sangli - MPCB","08-04-2025 20:00:00"," 16.5038",74.3623,PM10,40,125,76
India,Maharashtra,Sangli,"Vijay Nagar, Sangli - MPCB","08-04-2025 20:00:00"," 16.5038",74.3623,NO2,8,60,26
India,Maharashtra,Ulhasnagar,"Sidhi Vinayak Nagar, Ulhasnagar - MPCB","08-04-2025 20:00:00",19.235581,73.159121,OZONE,4,238,139
India,Maharashtra,Virar,"Bolinj, Virar - MPCB","08-04-2025 20:00:00",19.4458210,72.7988231,PM10,54,143,85
India,Meghalaya,Shillong,"JN Stadium, Shillong - Meghalaya PCB","08-04-2025 20:00:00",25.5803419,91.8942571,PM2.5,60,321,153
India,Meghalaya,Shillong,"JN Stadium, Shillong - Meghalaya PCB","08-04-2025 20:00:00",25.5803419,91.8942571,NO2,10,61,34
India,Meghalaya,Shillong,"JN Stadium, Shillong - Meghalaya PCB","08-04-2025 20:00:00",25.5803419,91.8942571,OZONE,1,19,10
India,Meghalaya,Shillong,"Lumpyngngad, Shillong - Meghalaya PCB","08-04-2025 20:00:00",25.5586,91.8985,NO2,NA,NA,NA
India,Mizoram,Aizawl,"Sikulpuikawn, Aizawl - Mizoram PCB","08-04-2025 20:00:00",23.7176342,92.7192841,OZONE,1,19,9
India,Maharashtra,Solapur,"Ratandeep Housing Society, Solapur - MPCB","08-04-2025 20:00:00",17.65439,75.90649,NO2,15,83,40
India,Maharashtra,Solapur,"Ratandeep Housing Society, Solapur - MPCB","08-04-2025 20:00:00",17.65439,75.90649,CO,14,51,24
India,Maharashtra,Solapur,"Solapur, Solapur - MPCB","08-04-2025 20:00:00",17.6599188,75.9063906,PM10,102,135,124
India,Maharashtra,Thane,"Kasarvadavali, Thane - MPCB","08-04-2025 20:00:00",19.26777,72.97182,NH3,5,15,8
India,Maharashtra,Thane,"Upvan Fort, Thane - MPCB","08-04-2025 20:00:00",19.222279,72.957979,PM10,55,132,88
India,Maharashtra,Thane,"Upvan Fort, Thane - MPCB","08-04-2025 20:00:00",19.222279,72.957979,NH3,3,11,6
India,Maharashtra,Thane,"Upvan Fort, Thane - MPCB","08-04-2025 20:00:00",19.222279,72.957979,OZONE,4,146,121
India,Maharashtra,Nashik,"Pandav Nagari, Nashik - MPCB","08-04-2025 20:00:00",19.9591346,73.7788008,NO2,6,40,15
India,Maharashtra,"Navi Mumbai","Mahape, Navi Mumbai - MPCB","08-04-2025 20:00:00",19.1135051,73.008978,NH3,1,1,1
India,Maharashtra,"Navi Mumbai","Sanpada, Navi Mumbai - MPCB","08-04-2025 20:00:00",19.0575752,73.0151367,PM10,92,170,124
India,Maharashtra,"Navi Mumbai","Sanpada, Navi Mumbai - MPCB","08-04-2025 20:00:00",19.0575752,73.0151367,NH3,6,15,9
India,Maharashtra,"Navi Mumbai","Sector-2E Kalamboli, Navi Mumbai - MPCB","08-04-2025 20:00:00",19.02579,73.10297,NO2,36,85,63
India,Maharashtra,"Navi Mumbai","Sector-2E Kalamboli, Navi Mumbai - MPCB","08-04-2025 20:00:00",19.02579,73.10297,NH3,4,7,6
India,Maharashtra,Pimpri-Chinchwad,"Savta Mali Nagar, Pimpri-Chinchwad - IITM","08-04-2025 20:00:00",18.614767,73.799516,NO2,21,106,70
India,Maharashtra,Pune,"Hadapsar, Pune - IITM","08-04-2025 20:00:00",18.501793,73.927532,PM10,64,155,107
India,Maharashtra,Pune,"Hadapsar, Pune - IITM","08-04-2025 20:00:00",18.501793,73.927532,OZONE,3,93,55
India,Maharashtra,Pune,"Karve Road, Pune - MPCB","08-04-2025 20:00:00",18.5011743,73.8165527,OZONE,34,67,50
India,Nagaland,Kohima,"PWD Juction, Kohima - NPCB","08-04-2025 20:00:00",25.6635413,94.0989878,NO2,3,5,4
India,Rajasthan,Bhiwadi,"RIICO Ind. Area III, Bhiwadi - RSPCB","08-04-2025 20:00:00",28.194909,76.862296,NO2,21,41,34
India,Rajasthan,Bhiwadi,"RIICO Ind. Area III, Bhiwadi - RSPCB","08-04-2025 20:00:00",28.194909,76.862296,NH3,8,15,12
India,Rajasthan,Bhiwadi,"RIICO Ind. Area III, Bhiwadi - RSPCB","08-04-2025 20:00:00",28.194909,76.862296,CO,15,107,61
India,Rajasthan,Bhiwadi,"Vasundhara Nagar_UIT, Bhiwadi - RSPCB","08-04-2025 20:00:00",28.207266,76.829265,PM10,149,462,265
India,Rajasthan,Bhiwadi,"Vasundhara Nagar_UIT, Bhiwadi - RSPCB","08-04-2025 20:00:00",28.207266,76.829265,SO2,6,54,20
India,Rajasthan,Bikaner,"MM Ground, Bikaner - RSPCB","08-04-2025 20:00:00",28.018792,73.292658,PM10,102,398,171
India,Rajasthan,Bikaner,"MM Ground, Bikaner - RSPCB","08-04-2025 20:00:00",28.018792,73.292658,OZONE,1,109,101
India,Rajasthan,Bundi,"New Colony, Bundi - RSPCB","08-04-2025 20:00:00",25.435774,75.644272,PM2.5,26,137,55
India,Odisha,Byasanagar,"Ferro Chrome Colony, Byasanagar - OSPCB","08-04-2025 20:00:00",20.94185,86.11510,NH3,1,1,1
India,Odisha,Cuttack,"CDA Area, Cuttack - OSPCB","08-04-2025 20:00:00","20.48891     ","85.84768     ",PM2.5,14,27,22
India,Odisha,Cuttack,"CDA Area, Cuttack - OSPCB","08-04-2025 20:00:00","20.48891     ","85.84768     ",NH3,1,2,2
India,Odisha,Cuttack,"CDA Area, Cuttack - OSPCB","08-04-2025 20:00:00","20.48891     ","85.84768     ",OZONE,6,51,38
India,Odisha,Keonjhar,"Jagamohanpur, Keonjhar - OSPCB","08-04-2025 20:00:00",21.643900,85.599355,NH3,4,7,6
India,Odisha,Rairangpur,"Divisional Forest Office, Rairangpur - OSPCB","08-04-2025 20:00:00",22.265816,86.174829,NO2,13,19,16
India,Odisha,Rairangpur,"Divisional Forest Office, Rairangpur - OSPCB","08-04-2025 20:00:00",22.265816,86.174829,SO2,6,17,11
India,Rajasthan,Baran,"Bamboliya, Baran - RSPCB","08-04-2025 20:00:00",25.106006,76.469948,PM10,92,174,128
India,Rajasthan,Baran,"Bamboliya, Baran - RSPCB","08-04-2025 20:00:00",25.106006,76.469948,SO2,7,39,14
India,Rajasthan,Barmer,"Railway Colony, Barmer - RSPCB","08-04-2025 20:00:00",25.747299,71.393989,OZONE,66,105,92
India,Rajasthan,Bharatpur,"Krishna Nagar, Bharatpur - RSPCB","08-04-2025 20:00:00",27.215415,77.50873,PM10,74,188,138
India,Rajasthan,Bharatpur,"Krishna Nagar, Bharatpur - RSPCB","08-04-2025 20:00:00",27.215415,77.50873,SO2,7,23,11
India,Rajasthan,Bhilwara,"Pratap Nagar, Bhilwara - RSPCB","08-04-2025 20:00:00",25.339605,74.618883,NO2,4,84,22
India,Rajasthan,Ajmer,"Civil Lines,  Ajmer - RSPCB","08-04-2025 20:00:00",26.470859,74.646594,OZONE,10,83,48
India,Rajasthan,Alwar,"Moti Doongri, Alwar - RSPCB","08-04-2025 20:00:00",27.554793,76.611536,NO2,79,121,105
India,Rajasthan,Alwar,"Moti Doongri, Alwar - RSPCB","08-04-2025 20:00:00",27.554793,76.611536,CO,30,115,61
India,Rajasthan,Banswara,"Rati Talai, Banswara - RSPCB","08-04-2025 20:00:00",23.555190,74.440010,PM10,62,406,127
India,Rajasthan,Banswara,"Rati Talai, Banswara - RSPCB","08-04-2025 20:00:00",23.555190,74.440010,NO2,17,170,47
India,Odisha,Bhubaneswar,"Lingraj Mandir, Bhubaneswar - OSPCB","08-04-2025 20:00:00",20.240790,85.836784,PM10,20,47,31
India,Odisha,Bhubaneswar,"Patia, Bhubaneswar - OSPCB","08-04-2025 20:00:00",20.34652,85.81630,CO,22,33,28
India,Odisha,Bileipada,"Tata Township, Bileipada - OSPCB","08-04-2025 20:00:00",22.06156703,85.47409613,OZONE,20,33,29
India,Odisha,Brajrajnagar,"GM Office, Brajrajnagar - OSPCB","08-04-2025 20:00:00",21.8004996,83.8396977,SO2,8,12,10
India,Odisha,Tensa,"Barsua Iron Ore Mines, Tensa - OSPCB","08-04-2025 20:00:00",21.869985,85.167016,NO2,NA,NA,NA
India,Punjab,Amritsar,"Golden Temple, Amritsar - PPCB","08-04-2025 20:00:00",31.620000,74.876512,NO2,64,167,117
India,Punjab,Amritsar,"Golden Temple, Amritsar - PPCB","08-04-2025 20:00:00",31.620000,74.876512,SO2,11,106,35
India,Odisha,Rourkela,"Raghunathpali, Rourkela - OSPCB","08-04-2025 20:00:00",22.220833,84.809444,NO2,6,8,6
India,Odisha,Rourkela,"Raghunathpali, Rourkela - OSPCB","08-04-2025 20:00:00",22.220833,84.809444,NH3,2,3,2
India,Odisha,Rourkela,"Sector-2, Rourkela - OSPCB","08-04-2025 20:00:00",22.24500000,84.88111111,PM2.5,43,76,57
India,Odisha,Suakati,"OMC Colony, Suakati - OSPCB","08-04-2025 20:00:00",21.606865,85.510538,OZONE,2,22,16
India,Odisha,Talcher,"Talcher Coalfields,Talcher - OSPCB","08-04-2025 20:00:00",20.9360711,85.1707021,PM10,4,78,38
India,Odisha,Talcher,"Talcher Coalfields,Talcher - OSPCB","08-04-2025 20:00:00",20.9360711,85.1707021,NO2,20,28,24
India,Punjab,"Mandi Gobindgarh","RIMT University, Mandi Gobindgarh - PPCB","08-04-2025 20:00:00",30.649961,76.331442,CO,52,112,57
India,Rajasthan,"Sri Ganganagar","Old City, Sri Ganganagar - RSPCB","08-04-2025 20:00:00",29.931624,73.864511,PM10,120,336,182
India,Rajasthan,"Sri Ganganagar","Old City, Sri Ganganagar - RSPCB","08-04-2025 20:00:00",29.931624,73.864511,NO2,47,119,88
India,Rajasthan,"Sri Ganganagar","Old City, Sri Ganganagar - RSPCB","08-04-2025 20:00:00",29.931624,73.864511,OZONE,7,148,113
India,Rajasthan,Tonk,"Shastri Nagar, Tonk - RSPCB","08-04-2025 20:00:00",26.159933,75.780517,PM2.5,NA,NA,NA
India,Rajasthan,Tonk,"Shastri Nagar, Tonk - RSPCB","08-04-2025 20:00:00",26.159933,75.780517,SO2,NA,NA,NA
India,Rajasthan,Udaipur,"Ashok Nagar, Udaipur - RSPCB","08-04-2025 20:00:00",24.5886166,73.6321397,PM2.5,39,165,70
India,Sikkim,Gangtok,"Zero Point GICI, Gangtok - SSPCB","08-04-2025 20:00:00",27.338530,88.614099,CO,28,40,32
India,TamilNadu,Ariyalur,"Keelapalur, Ariyalur - TNPCB","08-04-2025 20:00:00",11.06825,79.07033,NO2,10,29,11
India,TamilNadu,Ariyalur,"Keelapalur, Ariyalur - TNPCB","08-04-2025 20:00:00",11.06825,79.07033,NH3,1,23,2
India,TamilNadu,Ariyalur,"Keelapalur, Ariyalur - TNPCB","08-04-2025 20:00:00",11.06825,79.07033,OZONE,4,29,21
India,TamilNadu,Chengalpattu,"Crescent University, Chengalpattu - TNPCB","08-04-2025 20:00:00",12.8777316,80.0834807,PM2.5,35,53,43
India,Rajasthan,Dungarpur,"Bhoiwada, Dungarpur - RSPCB","08-04-2025 20:00:00",23.837789,73.714926,PM2.5,20,77,40
India,Rajasthan,Dungarpur,"Bhoiwada, Dungarpur - RSPCB","08-04-2025 20:00:00",23.837789,73.714926,OZONE,24,106,85
India,Rajasthan,Hanumangarh,"Housing Board, Hanumangarh - RSPCB","08-04-2025 20:00:00",29.610750,74.283608,NO2,16,69,38
India,Rajasthan,Jaipur,"Adarsh Nagar, Jaipur - RSPCB","08-04-2025 20:00:00",26.902909,75.836858,PM10,24,130,97
India,Rajasthan,Jaipur,"Adarsh Nagar, Jaipur - RSPCB","08-04-2025 20:00:00",26.902909,75.836858,NO2,18,138,42
India,Rajasthan,Jaipur,"Mansarovar Sector-12, Jaipur - RSPCB","08-04-2025 20:00:00",26.843698,75.766894,PM2.5,29,85,48
India,Rajasthan,Jaipur,"Mansarovar Sector-12, Jaipur - RSPCB","08-04-2025 20:00:00",26.843698,75.766894,SO2,4,16,9
India,Rajasthan,Jaipur,"Police Commissionerate, Jaipur - RSPCB","08-04-2025 20:00:00",26.9164092,75.7994901,PM2.5,73,182,107
India,Rajasthan,Jaipur,"Police Commissionerate, Jaipur - RSPCB","08-04-2025 20:00:00",26.9164092,75.7994901,NO2,9,115,27
India,Rajasthan,Jaipur,"Police Commissionerate, Jaipur - RSPCB","08-04-2025 20:00:00",26.9164092,75.7994901,CO,2,118,41
India,Rajasthan,Jodhpur,"Jhalamand, Jodhpur - RSPCB","08-04-2025 20:00:00",26.215415,73.070156,OZONE,17,74,62
India,Rajasthan,Jodhpur,"Mandor, Jodhpur - RSPCB","08-04-2025 20:00:00",26.358805,73.047444,NO2,15,98,27
India,Rajasthan,Jodhpur,"Samrat Ashok Udhyan, Jodhpur - RSPCB","08-04-2025 20:00:00",26.253384,72.976571,PM2.5,23,146,52
India,Rajasthan,Jodhpur,"Samrat Ashok Udhyan, Jodhpur - RSPCB","08-04-2025 20:00:00",26.253384,72.976571,PM10,54,186,98
India,Rajasthan,Jodhpur,"Samrat Ashok Udhyan, Jodhpur - RSPCB","08-04-2025 20:00:00",26.253384,72.976571,NH3,8,11,9
India,Rajasthan,Jodhpur,"Samrat Ashok Udhyan, Jodhpur - RSPCB","08-04-2025 20:00:00",26.253384,72.976571,SO2,4,16,8
India,Rajasthan,Karauli,"Satyawati Vihar, Karauli - RSPCB","08-04-2025 20:00:00",26.506177,77.025989,NH3,8,16,11
India,Rajasthan,Kota,"Dhanmandi, Kota - RSPCB","08-04-2025 20:00:00",25.164090,75.858137,SO2,6,111,16
India,Rajasthan,Kota,"Nayapura, Kota - RSPCB","08-04-2025 20:00:00",25.196024,75.855668,PM2.5,12,266,101
India,Rajasthan,Jaipur,"RIICO Sitapura, Jaipur - RSPCB","08-04-2025 20:00:00",26.786682,75.827928,SO2,1,4,2
India,Rajasthan,Jaipur,"RIICO Sitapura, Jaipur - RSPCB","08-04-2025 20:00:00",26.786682,75.827928,CO,42,134,65
India,Rajasthan,Jaipur,"RIICO Sitapura, Jaipur - RSPCB","08-04-2025 20:00:00",26.786682,75.827928,OZONE,1,248,161
India,Rajasthan,Jaipur,"Sector-2 Murlipura, Jaipur - RSPCB","08-04-2025 20:00:00",26.960669,75.771817,OZONE,25,131,70
India,Rajasthan,Jaipur,"Shastri Nagar, Jaipur - RSPCB","08-04-2025 20:00:00",26.9502929,75.730943,PM2.5,19,180,91
India,Rajasthan,Jaipur,"Shastri Nagar, Jaipur - RSPCB","08-04-2025 20:00:00",26.9502929,75.730943,NH3,3,24,8
India,Rajasthan,Jaisalmer,"Sadar Bazar, Jaisalmer - RSPCB","08-04-2025 20:00:00",26.912329,70.909168,PM2.5,23,54,38
India,Rajasthan,Jaisalmer,"Sadar Bazar, Jaisalmer - RSPCB","08-04-2025 20:00:00",26.912329,70.909168,SO2,2,6,4
India,Rajasthan,Jalore,"Mudtra Sili, Jalore - RSPCB","08-04-2025 20:00:00",25.344694,72.626208,NH3,5,10,7
India,Rajasthan,Kota,"Nayapura, Kota - RSPCB","08-04-2025 20:00:00",25.196024,75.855668,SO2,2,16,8
India,Rajasthan,Kota,"Nayapura, Kota - RSPCB","08-04-2025 20:00:00",25.196024,75.855668,CO,24,123,45
India,Rajasthan,Kota,"Shrinath Puram, Kota - RSPCB","08-04-2025 20:00:00",25.14389,75.821256,NO2,12,24,17
India,Rajasthan,Kota,"Shrinath Puram, Kota - RSPCB","08-04-2025 20:00:00",25.14389,75.821256,NH3,1,11,5
India,Rajasthan,Nagaur,"Karni Colony, Nagaur - RSPCB","08-04-2025 20:00:00",27.213494,73.734444,NH3,6,16,8
India,Rajasthan,Pali,"Indira Colony Vistar, Pali - RSPCB","08-04-2025 20:00:00",25.771061," 73.340227",PM10,94,215,148
India,Rajasthan,Pali,"Indira Colony Vistar, Pali - RSPCB","08-04-2025 20:00:00",25.771061," 73.340227",SO2,1,15,10
India,Rajasthan,Pali,"Indira Colony Vistar, Pali - RSPCB","08-04-2025 20:00:00",25.771061," 73.340227",CO,10,103,42
India,Rajasthan,Rajsamand,"Dhoinda, Rajsamand - RSPCB","08-04-2025 20:00:00",25.036360,73.883502,NO2,3,66,15
India,Rajasthan,Rajsamand,"Dhoinda, Rajsamand - RSPCB","08-04-2025 20:00:00",25.036360,73.883502,NH3,11,31,16
India,Rajasthan,"Sawai Madhopur","Sahu Nagar, Sawai Madhopur - RSPCB","08-04-2025 20:00:00",26.031443,76.359327,NO2,11,30,18
India,Rajasthan,Sirohi,"Vedhaynath Colony, Sirohi - RSPCB","08-04-2025 20:00:00",24.885261,72.857549,PM2.5,32,71,43
India,Rajasthan,Sirohi,"Vedhaynath Colony, Sirohi - RSPCB","08-04-2025 20:00:00",24.885261,72.857549,CO,2,36,10
India,Rajasthan,"Sri Ganganagar","Old City, Sri Ganganagar - RSPCB","08-04-2025 20:00:00",29.931624,73.864511,PM2.5,43,300,123
India,TamilNadu,Chennai,"Alandur Bus Depot, Chennai - CPCB","08-04-2025 20:00:00",12.9099161,80.1076538,PM2.5,12,19,14
India,TamilNadu,Chennai,"Alandur Bus Depot, Chennai - CPCB","08-04-2025 20:00:00",12.9099161,80.1076538,NO2,NA,NA,NA
India,TamilNadu,Chennai,"Alandur Bus Depot, Chennai - CPCB","08-04-2025 20:00:00",12.9099161,80.1076538,SO2,15,16,15
India,TamilNadu,Chennai,"Kodungaiyur, Chennai - TNPCB","08-04-2025 20:00:00",13.1278,80.2642,PM10,10,70,41
India,TamilNadu,Chennai,"Kodungaiyur, Chennai - TNPCB","08-04-2025 20:00:00",13.1278,80.2642,OZONE,7,16,10
India,TamilNadu,Chennai,"Manali Village, Chennai - TNPCB","08-04-2025 20:00:00",13.1662,80.2584,NH3,1,1,1
India,TamilNadu,Chennai,"Manali, Chennai - CPCB","08-04-2025 20:00:00",13.164544,80.26285,PM10,30,69,47
India,Rajasthan,Jhalawar,"Rajlaxmi Nagar, Jhalawar - RSPCB","08-04-2025 20:00:00",24.588397,76.172782,PM10,66,160,115
India,Rajasthan,Jhalawar,"Rajlaxmi Nagar, Jhalawar - RSPCB","08-04-2025 20:00:00",24.588397,76.172782,NO2,13,106,45
India,Rajasthan,Jhalawar,"Rajlaxmi Nagar, Jhalawar - RSPCB","08-04-2025 20:00:00",24.588397,76.172782,NH3,4,9,6
India,Rajasthan,Jodhpur,"Collectorate, Jodhpur - RSPCB","08-04-2025 20:00:00",26.268249,73.0193853,NO2,3,25,8
India,Rajasthan,Jodhpur,"Collectorate, Jodhpur - RSPCB","08-04-2025 20:00:00",26.268249,73.0193853,CO,2,102,22
India,Rajasthan,Jodhpur,"Digari Kalan, Jodhpur - RSPCB","08-04-2025 20:00:00",26.295810,73.082283,NH3,1,3,3
India,Rajasthan,Jodhpur,"Digari Kalan, Jodhpur - RSPCB","08-04-2025 20:00:00",26.295810,73.082283,OZONE,2,63,52
India,Rajasthan,Chittorgarh,"Shastri Nagar, Chittorgarh - RSPCB","08-04-2025 20:00:00",24.892047,74.623527,NO2,6,100,41
India,Rajasthan,Churu,"Subash Chowk, Churu - RSPCB","08-04-2025 20:00:00",28.296139,74.961696,NH3,5,9,7
India,Rajasthan,Churu,"Subash Chowk, Churu - RSPCB","08-04-2025 20:00:00",28.296139,74.961696,CO,6,11,8
India,Rajasthan,Churu,"Subash Chowk, Churu - RSPCB","08-04-2025 20:00:00",28.296139,74.961696,OZONE,38,156,118
India,Rajasthan,Dausa,"Khatikan Mohalla, Dausa - RSPCB","08-04-2025 20:00:00",26.895552,76.334753,SO2,12,21,16
India,Rajasthan,Dausa,"Khatikan Mohalla, Dausa - RSPCB","08-04-2025 20:00:00",26.895552,76.334753,CO,30,55,40
India,TamilNadu,Namakkal,"Ponnusamy Nagar, Namakkal - TNPCB","08-04-2025 20:00:00",11.273992,78.163545,PM10,NA,NA,NA
India,TamilNadu,Namakkal,"Ponnusamy Nagar, Namakkal - TNPCB","08-04-2025 20:00:00",11.273992,78.163545,NO2,NA,NA,NA
India,TamilNadu,Ooty,"Bombay Castel, Ooty - TNPCB","08-04-2025 20:00:00",11.4068288,76.7138973,NH3,15,17,17
India,TamilNadu,Ooty,"Bombay Castel, Ooty - TNPCB","08-04-2025 20:00:00",11.4068288,76.7138973,CO,24,28,27
India,TamilNadu,Palkalaiperur,"Bharathidasan University, Palkalaiperur - TNPCB","08-04-2025 20:00:00",10.681158,78.741746,SO2,8,9,9
India,TamilNadu,Pudukottai,"SIPCOT Nathampannai, Pudukottai - TNPCB","08-04-2025 20:00:00",10.423417,78.784889,NH3,2,3,3
India,TamilNadu,Pudukottai,"SIPCOT Nathampannai, Pudukottai - TNPCB","08-04-2025 20:00:00",10.423417,78.784889,SO2,12,14,13
India,TamilNadu,Ramanathapuram,"Chalai Bazaar, Ramanathapuram - TNPCB","08-04-2025 20:00:00",9.36399,78.831977,PM2.5,22,53,35
India,Telangana,Hyderabad,"Sanathnagar, Hyderabad - TSPCB","08-04-2025 20:00:00",17.4559458,78.4332152,NO2,NA,NA,NA
India,Telangana,Hyderabad,"Sanathnagar, Hyderabad - TSPCB","08-04-2025 20:00:00",17.4559458,78.4332152,SO2,NA,NA,NA
India,Telangana,Hyderabad,"Sanathnagar, Hyderabad - TSPCB","08-04-2025 20:00:00",17.4559458,78.4332152,OZONE,12,17,14
India,Tripura,Agartala,"Bardowali, Agartala - Tripura SPCB","08-04-2025 20:00:00",23.8175497,91.2726974,PM2.5,7,23,16
India,Tripura,Agartala,"Bardowali, Agartala - Tripura SPCB","08-04-2025 20:00:00",23.8175497,91.2726974,OZONE,35,81,63
India,Uttar_Pradesh,Agra,"Manoharpur, Agra - UPPCB","08-04-2025 20:00:00",27.23711,78.01936,PM2.5,3,102,57
India,Uttar_Pradesh,Agra,"Manoharpur, Agra - UPPCB","08-04-2025 20:00:00",27.23711,78.01936,CO,8,18,10
India,Uttar_Pradesh,Agra,"Rohta, Agra - UPPCB","08-04-2025 20:00:00",27.106972,78.000111,PM2.5,NA,NA,NA
India,TamilNadu,Thoothukudi,"Meelavittan, Thoothukudi - TNPCB","08-04-2025 20:00:00","8.816428 ",78.099039,CO,3,39,24
India,TamilNadu,Thoothukudi,"Meelavittan, Thoothukudi - TNPCB","08-04-2025 20:00:00","8.816428 ",78.099039,OZONE,14,21,17
India,TamilNadu,Tiruchirappalli,"St Joseph College, Tiruchirappalli - TNPCB","08-04-2025 20:00:00",10.830158,78.691849,CO,6,12,6
India,TamilNadu,Tirunelveli,"Municipal Corporation Office, Tirunelveli - TNPCB","08-04-2025 20:00:00",8.728442,77.6962,CO,28,30,29
India,TamilNadu,Vellore,"Vasanthapuram, Vellore - TNPCB","08-04-2025 20:00:00",12.909494,79.131861,OZONE,4,56,10
India,TamilNadu,Virudhunagar,"Collectorate Office, Virudhunagar - TNPCB","08-04-2025 20:00:00",9.559382,77.948828,SO2,18,18,18
India,TamilNadu,Chennai,"Manali, Chennai - CPCB","08-04-2025 20:00:00",13.164544,80.26285,CO,62,101,77
India,TamilNadu,Chennai,"Manali, Chennai - CPCB","08-04-2025 20:00:00",13.164544,80.26285,OZONE,10,33,21
India,TamilNadu,Chennai,"Perungudi, Chennai - TNPCB","08-04-2025 20:00:00",12.9533,80.2357,NH3,3,4,4
India,TamilNadu,Chennai,"Royapuram, Chennai - TNPCB","08-04-2025 20:00:00",13.1036,80.2909,CO,16,50,23
India,TamilNadu,Chennai,"Royapuram, Chennai - TNPCB","08-04-2025 20:00:00",13.1036,80.2909,OZONE,3,26,18
India,TamilNadu,Coimbatore,"PSG College of Arts and Science, Coimbatore - TNPCB","08-04-2025 20:00:00",11.0328,77.0349,PM2.5,37,113,62
India,TamilNadu,Coimbatore,"PSG College of Arts and Science, Coimbatore - TNPCB","08-04-2025 20:00:00",11.0328,77.0349,PM10,30,81,48
India,TamilNadu,Coimbatore,"SIDCO Kurichi, Coimbatore - TNPCB","08-04-2025 20:00:00",10.942451,76.978996,PM2.5,NA,NA,NA
India,TamilNadu,Coimbatore,"SIDCO Kurichi, Coimbatore - TNPCB","08-04-2025 20:00:00",10.942451,76.978996,NH3,NA,NA,NA
India,TamilNadu,Cuddalore,"Semmandalam, Cuddalore - TNPCB","08-04-2025 20:00:00",11.7637683,79.7499835,NH3,NA,NA,NA
India,TamilNadu,Dindigul,"Mendonsa Colony, Dindigul - TNPCB","08-04-2025 20:00:00",10.358535,77.984321,PM2.5,NA,NA,NA
India,TamilNadu,Dindigul,"Mendonsa Colony, Dindigul - TNPCB","08-04-2025 20:00:00",10.358535,77.984321,SO2,NA,NA,NA
India,TamilNadu,Gummidipoondi,"Anthoni Pillai Nagar, Gummidipoondi - TNPCB","08-04-2025 20:00:00",13.4127,80.1081,NO2,8,32,18
India,TamilNadu,Hosur,"SIPCOT Phase-1, Hosur - TNPCB","08-04-2025 20:00:00",12.746998,77.813811,PM2.5,NA,NA,NA
India,TamilNadu,Ramanathapuram,"Chalai Bazaar, Ramanathapuram - TNPCB","08-04-2025 20:00:00",9.36399,78.831977,CO,20,26,23
India,TamilNadu,Salem,"Sona College of Technology, Salem - TNPCB","08-04-2025 20:00:00",11.679111,78.125052,OZONE,16,17,17
India,TamilNadu,Thanjavur,"Parisutham Nagar, Thanjavur - TNPCB","08-04-2025 20:00:00",10.7654824,79.1389968,CO,6,8,7
India,TamilNadu,Hosur,"SIPCOT Phase-1, Hosur - TNPCB","08-04-2025 20:00:00",12.746998,77.813811,NH3,1,1,1
India,TamilNadu,Kanchipuram,"Kilambi, Kanchipuram - TNPCB","08-04-2025 20:00:00",12.864618,79.659968,NH3,4,4,4
India,TamilNadu,Kanchipuram,"Kilambi, Kanchipuram - TNPCB","08-04-2025 20:00:00",12.864618,79.659968,OZONE,1,101,81
India,TamilNadu,Karur,"Kamadenu Nagar, Karur - TNPCB","08-04-2025 20:00:00",10.967820,78.080882,CO,11,24,16
India,Telangana,Hyderabad,"IITH Kandi, Hyderabad - TSPCB","08-04-2025 20:00:00",17.585705,78.126199,PM10,64,84,72
India,Telangana,Hyderabad,"IITH Kandi, Hyderabad - TSPCB","08-04-2025 20:00:00",17.585705,78.126199,CO,24,41,30
India,Telangana,Hyderabad,"Kompally Municipal Office, Hyderabad - TSPCB","08-04-2025 20:00:00",17.544899,78.486949,NO2,NA,NA,NA
India,Telangana,Hyderabad,"Kompally Municipal Office, Hyderabad - TSPCB","08-04-2025 20:00:00",17.544899,78.486949,OZONE,29,66,53
India,Telangana,Hyderabad,"Bollaram Industrial Area, Hyderabad - TSPCB","08-04-2025 20:00:00",17.540891,78.358528,PM2.5,15,78,32
India,Telangana,Hyderabad,"Bollaram Industrial Area, Hyderabad - TSPCB","08-04-2025 20:00:00",17.540891,78.358528,PM10,49,135,91
India,Telangana,Hyderabad,"ECIL Kapra, Hyderabad - TSPCB","08-04-2025 20:00:00",17.470431,78.566959,NH3,NA,NA,NA
India,Uttar_Pradesh,"Greater Noida","Knowledge Park - III, Greater Noida - UPPCB","08-04-2025 20:00:00",28.47272,77.482000,NH3,8,13,10
India,Uttar_Pradesh,"Greater Noida","Knowledge Park - V, Greater Noida - UPPCB","08-04-2025 20:00:00",28.557054,77.453663,PM2.5,283,500,379
India,Uttar_Pradesh,"Greater Noida","Knowledge Park - V, Greater Noida - UPPCB","08-04-2025 20:00:00",28.557054,77.453663,NO2,32,159,78
India,Uttar_Pradesh,Hapur,"Anand Vihar, Hapur - UPPCB","08-04-2025 20:00:00",28.725645,77.749675,CO,35,58,46
India,Uttar_Pradesh,Jhansi,"Shivaji Nagar, Jhansi - UPPCB","08-04-2025 20:00:00",25.4547,78.6039,PM2.5,44,154,79
India,Uttar_Pradesh,Jhansi,"Shivaji Nagar, Jhansi - UPPCB","08-04-2025 20:00:00",25.4547,78.6039,NH3,4,4,4
India,Uttar_Pradesh,Kanpur,"FTI Kidwai Nagar, Kanpur - UPPCB","08-04-2025 20:00:00",26.428282,80.327067,PM2.5,50,103,81
India,Uttar_Pradesh,Kanpur,"NSI Kalyanpur, Kanpur - UPPCB","08-04-2025 20:00:00",26.509954,80.249612,PM2.5,51,96,72
India,Uttar_Pradesh,Kanpur,"Nehru Nagar, Kanpur - UPPCB","08-04-2025 20:00:00",26.4703136,80.3229863,PM2.5,73,166,120
India,Uttar_Pradesh,Kanpur,"Nehru Nagar, Kanpur - UPPCB","08-04-2025 20:00:00",26.4703136,80.3229863,PM10,66,113,96
India,Uttar_Pradesh,Kanpur,"Nehru Nagar, Kanpur - UPPCB","08-04-2025 20:00:00",26.4703136,80.3229863,OZONE,6,84,52
India,Uttar_Pradesh,Khurja,"Kalindi Kunj, Khurja - UPPCB","08-04-2025 20:00:00",28.2348927,77.8683002,CO,28,58,30
India,Uttar_Pradesh,Lucknow,"B R Ambedkar University, Lucknow - UPPCB","08-04-2025 20:00:00",26.766433,80.927299,NH3,3,11,7
India,Uttar_Pradesh,Lucknow,"Gomti Nagar, Lucknow - UPPCB","08-04-2025 20:00:00",26.868120,81.005119,NO2,9,11,10
India,Uttar_Pradesh,Lucknow,"Kendriya Vidyalaya, Lucknow - CPCB","08-04-2025 20:00:00",26.906111,80.948222,NO2,36,51,45
India,Uttar_Pradesh,Baghpat,"Sardar Patel Inter College, Baghpat - UPPCB","08-04-2025 20:00:00",28.964949,77.278761,SO2,31,105,68
India,Uttar_Pradesh,Baghpat,"Sardar Patel Inter College, Baghpat - UPPCB","08-04-2025 20:00:00",28.964949,77.278761,CO,44,117,59
India,Uttar_Pradesh,Bareilly,"Civil Lines, Bareilly - UPPCB","08-04-2025 20:00:00",28.359581,79.414455,PM2.5,NA,NA,NA
India,Uttar_Pradesh,Bareilly,"Civil Lines, Bareilly - UPPCB","08-04-2025 20:00:00",28.359581,79.414455,NH3,1,2,1
India,Uttar_Pradesh,Bareilly,"Rajendra Nagar, Bareilly - UPPCB","08-04-2025 20:00:00",28.38910936,79.42963708,NH3,1,4,1
India,Uttar_Pradesh,Bulandshahr,"Yamunapuram, Bulandshahr - UPPCB","08-04-2025 20:00:00",28.406963,77.849831,SO2,19,61,37
India,Uttar_Pradesh,Firozabad,"Vibhab Nagar, Firozabad - UPPCB","08-04-2025 20:00:00",27.1594,78.3953,NO2,15,15,15
India,Uttar_Pradesh,Lucknow,"Kukrail Picnic Spot-1, Lucknow - UPPCB","08-04-2025 20:00:00",26.90723,80.98579,PM10,77,116,99
India,Uttar_Pradesh,Lucknow,"Kukrail Picnic Spot-1, Lucknow - UPPCB","08-04-2025 20:00:00",26.90723,80.98579,OZONE,23,78,65
India,Uttar_Pradesh,Lucknow,"Talkatora District Industries Center, Lucknow - CPCB","08-04-2025 20:00:00",26.83399722,80.8917361,NO2,31,49,38
India,Uttar_Pradesh,Meerut,"Ganga Nagar, Meerut - UPPCB","08-04-2025 20:00:00",28.999264,77.7590354,PM10,159,333,226
India,Uttar_Pradesh,Meerut,"Ganga Nagar, Meerut - UPPCB","08-04-2025 20:00:00",28.999264,77.7590354,CO,36,72,44
India,Uttar_Pradesh,Meerut,"Jai Bhim Nagar, Meerut - UPPCB","08-04-2025 20:00:00",28.9535882,77.7622941,CO,34,74,38
India,Uttar_Pradesh,Meerut,"Jai Bhim Nagar, Meerut - UPPCB","08-04-2025 20:00:00",28.9535882,77.7622941,OZONE,29,107,68
India,Uttar_Pradesh,Meerut,"Pallavpuram Phase 2, Meerut - UPPCB","08-04-2025 20:00:00",29.063510,77.709723,NO2,12,30,18
India,Uttar_Pradesh,Moradabad,"Buddhi Vihar, Moradabad - UPPCB","08-04-2025 20:00:00",28.83526,78.74460,PM2.5,36,79,52
India,Uttar_Pradesh,Moradabad,"Eco Herbal Park, Moradabad - UPPCB","08-04-2025 20:00:00",28.840739,78.697531,NH3,8,15,10
India,Uttar_Pradesh,Moradabad,"Eco Herbal Park, Moradabad - UPPCB","08-04-2025 20:00:00",28.840739,78.697531,OZONE,17,138,106
India,Uttar_Pradesh,Moradabad,"Jigar Colony, Moradabad - UPPCB","08-04-2025 20:00:00",28.856664,78.772638,OZONE,15,24,19
India,Uttar_Pradesh,Moradabad,"Kashiram Nagar, Moradabad - UPPCB","08-04-2025 20:00:00",28.849399,78.742362,PM2.5,39,83,53
India,Uttar_Pradesh,Moradabad,"Kashiram Nagar, Moradabad - UPPCB","08-04-2025 20:00:00",28.849399,78.742362,SO2,30,73,41
India,Uttar_Pradesh,Moradabad,"Transport Nagar, Moradabad - UPPCB","08-04-2025 20:00:00",28.802625,78.753728,PM10,67,123,91
India,Uttar_Pradesh,Moradabad,"Transport Nagar, Moradabad - UPPCB","08-04-2025 20:00:00",28.802625,78.753728,NH3,5,5,5
India,Uttar_Pradesh,Moradabad,"Transport Nagar, Moradabad - UPPCB","08-04-2025 20:00:00",28.802625,78.753728,CO,1,94,50
India,Uttar_Pradesh,Muzaffarnagar,"New Mandi, Muzaffarnagar - UPPCB","08-04-2025 20:00:00",29.4723508,77.7194031,OZONE,39,146,112
India,Uttar_Pradesh,Noida,"Sector-1, Noida - UPPCB","08-04-2025 20:00:00",28.5898,77.3101,PM10,41,139,75
India,Uttar_Pradesh,Agra,"Rohta, Agra - UPPCB","08-04-2025 20:00:00",27.106972,78.000111,SO2,NA,NA,NA
India,Uttar_Pradesh,Agra,"Sanjay Palace, Agra - UPPCB","08-04-2025 20:00:00",27.19865833,78.00598056,CO,24,26,24
India,Uttar_Pradesh,Agra,"Shahjahan Garden, Agra - UPPCB","08-04-2025 20:00:00",27.169338,78.03582,PM10,46,141,105
India,Uttar_Pradesh,Agra,"Shahjahan Garden, Agra - UPPCB","08-04-2025 20:00:00",27.169338,78.03582,NO2,12,13,12
India,Uttar_Pradesh,Agra,"Shahjahan Garden, Agra - UPPCB","08-04-2025 20:00:00",27.169338,78.03582,SO2,41,68,53
India,Uttar_Pradesh,Agra,"Shastripuram, Agra - UPPCB","08-04-2025 20:00:00",27.19862,77.92066,PM2.5,30,82,54
India,Uttar_Pradesh,Agra,"Shastripuram, Agra - UPPCB","08-04-2025 20:00:00",27.19862,77.92066,NO2,47,163,55
India,Uttar_Pradesh,Ghaziabad,"Indirapuram, Ghaziabad - UPPCB","08-04-2025 20:00:00",28.646233,77.358075,NH3,6,8,7
India,Uttar_Pradesh,Ghaziabad,"Indirapuram, Ghaziabad - UPPCB","08-04-2025 20:00:00",28.646233,77.358075,OZONE,6,100,80
India,Uttar_Pradesh,Ghaziabad,"Loni, Ghaziabad - UPPCB","08-04-2025 20:00:00",28.757294,77.278792,CO,42,87,56
India,Uttar_Pradesh,Ghaziabad,"Loni, Ghaziabad - UPPCB","08-04-2025 20:00:00",28.757294,77.278792,OZONE,18,154,120
India,Uttar_Pradesh,Ghaziabad,"Vasundhara, Ghaziabad - UPPCB","08-04-2025 20:00:00",28.6603346,77.3572563,OZONE,9,133,99
India,Uttar_Pradesh,Prayagraj,"Jhunsi, Prayagraj - UPPCB","08-04-2025 20:00:00",25.425602,81.917152,PM2.5,40,90,65
India,Uttar_Pradesh,Prayagraj,"Jhunsi, Prayagraj - UPPCB","08-04-2025 20:00:00",25.425602,81.917152,SO2,29,33,30
India,Uttar_Pradesh,Prayagraj,"Jhunsi, Prayagraj - UPPCB","08-04-2025 20:00:00",25.425602,81.917152,CO,12,58,19
India,Uttar_Pradesh,Prayagraj,"Nagar Nigam, Prayagraj - UPPCB","08-04-2025 20:00:00","25.44919916 ","81.82735986 ",SO2,17,114,75
India,Uttar_Pradesh,Varanasi,"Ardhali Bazar, Varanasi - UPPCB","08-04-2025 20:00:00",25.3505986,82.9083074,PM10,45,70,55
India,Uttar_Pradesh,Varanasi,"Bhelupur, Varanasi - UPPCB","08-04-2025 20:00:00",25.301778,82.996789,NH3,1,1,1
India,Uttar_Pradesh,Varanasi,"Bhelupur, Varanasi - UPPCB","08-04-2025 20:00:00",25.301778,82.996789,OZONE,2,18,12
India,Uttar_Pradesh,Varanasi,"IESD Banaras Hindu University, Varanasi - UPPCB","08-04-2025 20:00:00",25.262326,82.995408,CO,10,18,11
India,Uttar_Pradesh,Varanasi,"Maldahiya, Varanasi - UPPCB","08-04-2025 20:00:00",25.32393,82.99687,NH3,1,1,1
India,Uttar_Pradesh,Vrindavan,"Omex Eternity, Vrindavan - UPPCB","08-04-2025 20:00:00",27.5714090,77.6557570,PM10,37,132,82
India,Uttar_Pradesh,Vrindavan,"Omex Eternity, Vrindavan - UPPCB","08-04-2025 20:00:00",27.5714090,77.6557570,SO2,28,38,30
India,Uttarakhand,Dehradun,"Doon University, Dehradun - UKPCB","08-04-2025 20:00:00",30.269444,78.044167,PM2.5,80,197,99
India,Uttarakhand,Dehradun,"Doon University, Dehradun - UKPCB","08-04-2025 20:00:00",30.269444,78.044167,OZONE,67,168,147
India,Uttarakhand,Kashipur,"Govt. Girls Inter College, Kashipur - UKPCB","08-04-2025 20:00:00",29.2124114,78.9611753,CO,16,94,32
India,Uttarakhand,Rishikesh,"Shivaji Nagar, Rishikesh - UKPCB","08-04-2025 20:00:00",30.075911,78.2859547,PM10,83,137,110
India,West_Bengal,Asansol,"Asansol Court Area, Asansol - WBPCB","08-04-2025 20:00:00",23.685297,86.945968,PM10,26,67,47
India,West_Bengal,Asansol,"Mahabir Colliery, Asansol - WBPCB","08-04-2025 20:00:00",23.6181830,87.1057180,PM10,19,73,42
India,West_Bengal,Asansol,"Mahabir Colliery, Asansol - WBPCB","08-04-2025 20:00:00",23.6181830,87.1057180,NO2,5,41,16
India,West_Bengal,Asansol,"Mahabir Colliery, Asansol - WBPCB","08-04-2025 20:00:00",23.6181830,87.1057180,CO,13,27,21
India,West_Bengal,Asansol,"Trivenidevi Bhalotia College, Asansol - WBPCB","08-04-2025 20:00:00",23.616515,87.119133,NH3,1,2,2
India,West_Bengal,Asansol,"Trivenidevi Bhalotia College, Asansol - WBPCB","08-04-2025 20:00:00",23.616515,87.119133,SO2,7,17,11
India,West_Bengal,Barrackpore,"SVSPA Campus, Barrackpore - WBPCB","08-04-2025 20:00:00",22.7605581,88.3617589,PM10,23,108,49
India,West_Bengal,Barrackpore,"SVSPA Campus, Barrackpore - WBPCB","08-04-2025 20:00:00",22.7605581,88.3617589,NH3,5,9,7
India,West_Bengal,Barrackpore,"SVSPA Campus, Barrackpore - WBPCB","08-04-2025 20:00:00",22.7605581,88.3617589,SO2,13,14,13
India,West_Bengal,Durgapur,"Mahishkapur Road_B-Zone, Durgapur - WBPCB","08-04-2025 20:00:00",23.567923,87.306843,CO,25,62,42
India,West_Bengal,Durgapur,"PCBL Residential Complex, Durgapur - WBPCB","08-04-2025 20:00:00",23.5087640,87.3544400,PM2.5,13,60,36
India,West_Bengal,Durgapur,"PCBL Residential Complex, Durgapur - WBPCB","08-04-2025 20:00:00",23.5087640,87.3544400,PM10,47,153,90
India,West_Bengal,Durgapur,"PCBL Residential Complex, Durgapur - WBPCB","08-04-2025 20:00:00",23.5087640,87.3544400,OZONE,11,53,42
India,West_Bengal,Haldia,"Priyambada Housing Estate, Haldia - WBPCB","08-04-2025 20:00:00",22.06047,88.109737,CO,22,28,23
India,West_Bengal,Howrah,"Belur Math, Howrah - WBPCB","08-04-2025 20:00:00",22.629801,88.352017,NO2,34,36,35
India,West_Bengal,Howrah,"Botanical Garden, Howrah - WBPCB","08-04-2025 20:00:00",22.554954,88.292568,PM10,36,56,43
India,West_Bengal,Howrah,"Dasnagar, Howrah - WBPCB","08-04-2025 20:00:00",22.6025571,88.3105664,PM2.5,2,57,25
India,West_Bengal,Howrah,"Dasnagar, Howrah - WBPCB","08-04-2025 20:00:00",22.6025571,88.3105664,CO,14,26,19
India,West_Bengal,Howrah,"Ghusuri, Howrah - WBPCB","08-04-2025 20:00:00",22.611968,88.347422,SO2,8,10,9
India,West_Bengal,Kolkata,"Ballygunge, Kolkata - WBPCB","08-04-2025 20:00:00",22.5367507,88.3638022,PM2.5,13,40,23
India,West_Bengal,Kolkata,"Bidhannagar, Kolkata - WBPCB","08-04-2025 20:00:00",22.58157048,88.41002457,OZONE,14,36,28
India,West_Bengal,Kolkata,"Jadavpur, Kolkata - WBPCB","08-04-2025 20:00:00",22.49929,88.36917,OZONE,13,41,31
India,West_Bengal,Kolkata,"Rabindra Bharati University, Kolkata - WBPCB","08-04-2025 20:00:00",22.627847,88.380669,NH3,8,9,9
India,West_Bengal,Kolkata,"Rabindra Bharati University, Kolkata - WBPCB","08-04-2025 20:00:00",22.627847,88.380669,SO2,5,13,10
India,West_Bengal,Kolkata,"Rabindra Bharati University, Kolkata - WBPCB","08-04-2025 20:00:00",22.627847,88.380669,CO,24,27,25
India,West_Bengal,Kolkata,"Victoria, Kolkata - WBPCB","08-04-2025 20:00:00",22.5448082,88.3403691,PM10,30,78,46
India,West_Bengal,Kolkata,"Victoria, Kolkata - WBPCB","08-04-2025 20:00:00",22.5448082,88.3403691,CO,12,39,33
India,Assam,Silchar,"Tarapur, Silchar - PCBA","08-04-2025 20:00:00",24.82827,92.79525,PM10,49,65,56
India,Assam,Silchar,"Tarapur, Silchar - PCBA","08-04-2025 20:00:00",24.82827,92.79525,NO2,15,15,15
India,Assam,Sivasagar,"Girls College, Sivasagar - PCBA","08-04-2025 20:00:00",26.987634,94.636574,NO2,22,55,36
India,Assam,Sivasagar,"Girls College, Sivasagar - PCBA","08-04-2025 20:00:00",26.987634,94.636574,OZONE,1,20,10
India,Bihar,Araria,"Kharahiya Basti, Araria - BSPCB","08-04-2025 20:00:00",26.146529,87.454184,CO,24,51,31
India,Bihar,Arrah,"New DM Office, Arrah - BSPCB","08-04-2025 20:00:00",25.5626095,84.663264,PM10,70,111,86
India,Bihar,Arrah,"New DM Office, Arrah - BSPCB","08-04-2025 20:00:00",25.5626095,84.663264,NO2,5,8,7
India,Assam,Guwahati,"IITG, Guwahati - PCBA","08-04-2025 20:00:00",26.2028636,91.70046436,SO2,19,22,20
India,Assam,Guwahati,"LGBI Airport, Guwahati - PCBA","08-04-2025 20:00:00",26.10887,91.589544,NO2,NA,NA,NA
India,Assam,Guwahati,"Pan Bazaar, Guwahati - PCBA","08-04-2025 20:00:00",26.187500,91.744194,PM10,94,168,123
India,Assam,Guwahati,"Pan Bazaar, Guwahati - PCBA","08-04-2025 20:00:00",26.187500,91.744194,SO2,31,60,42
India,Assam,Nagaon,"Christianpatty, Nagaon - PCBA","08-04-2025 20:00:00",26.349082,92.68449,PM2.5,17,113,72
India,Assam,Nalbari,"Bata Chowk, Nalbari - PCBA","08-04-2025 20:00:00",26.446912,91.439057,SO2,2,6,3
India,"Andaman and Nicobar","Sri Vijaya Puram","Police Line, Sri Vijaya Puram - ANPCC","08-04-2025 20:00:00",11.654054,92.734055,PM2.5,3,8,5
India,"Andaman and Nicobar","Sri Vijaya Puram","Police Line, Sri Vijaya Puram - ANPCC","08-04-2025 20:00:00",11.654054,92.734055,OZONE,3,29,13
India,Andhra_Pradesh,Anantapur,"Gulzarpet, Anantapur - APPCB","08-04-2025 20:00:00",14.675886,77.593027,SO2,NA,NA,NA
India,Andhra_Pradesh,Anantapur,"Gulzarpet, Anantapur - APPCB","08-04-2025 20:00:00",14.675886,77.593027,OZONE,10,52,39
India,Andhra_Pradesh,Chittoor,"Gangineni Cheruvu, Chittoor - APPCB","08-04-2025 20:00:00",13.204880,79.097889,NO2,10,17,15
India,Bihar,Aurangabad,"Gurdeo Nagar, Aurangabad - BSPCB","08-04-2025 20:00:00",24.75746,84.366208,OZONE,8,98,63
India,Bihar,Bettiah,"Kamalnath Nagar, Bettiah - BSPCB","08-04-2025 20:00:00",26.80365,84.51954,PM2.5,28,68,47
India,Bihar,Bhagalpur,"DM Office_Kachari Chowk, Bhagalpur - BSPCB","08-04-2025 20:00:00",25.251013,86.989001,NH3,1,1,1
India,Bihar,Bhagalpur,"DM Office_Kachari Chowk, Bhagalpur - BSPCB","08-04-2025 20:00:00",25.251013,86.989001,SO2,26,52,39
India,Bihar,Bhagalpur,"DM Office_Kachari Chowk, Bhagalpur - BSPCB","08-04-2025 20:00:00",25.251013,86.989001,CO,12,17,14
India,Andhra_Pradesh,Tirumala,"Toll Gate, Tirumala - APPCB (Formerly known as Tirumala, Tirupati - APPCB)","08-04-2025 20:00:00",13.67,79.35,CO,1,106,9
India,Andhra_Pradesh,Tirumala,"Toll Gate, Tirumala - APPCB (Formerly known as Tirumala, Tirupati - APPCB)","08-04-2025 20:00:00",13.67,79.35,OZONE,8,46,36
India,Andhra_Pradesh,Vijayawada,"HB Colony, Vijayawada - APPCB","08-04-2025 20:00:00",16.536107,80.594233,PM2.5,38,317,80
India,Andhra_Pradesh,Vijayawada,"Kanuru, Vijayawada - APPCB","08-04-2025 20:00:00",16.486692,80.699436,PM10,47,63,53
India,Andhra_Pradesh,Vijayawada,"Rajiv Nagar, Vijayawada - APPCB","08-04-2025 20:00:00",16.554731,80.649110,OZONE,26,63,37
India,Assam,Guwahati,"IITG, Guwahati - PCBA","08-04-2025 20:00:00",26.2028636,91.70046436,PM2.5,70,313,158
India,Andhra_Pradesh,Vijayawada,"Rajiv Gandhi Park, Vijayawada - APPCB","08-04-2025 20:00:00",16.509717,80.612222,NH3,2,5,4
India,Andhra_Pradesh,Vijayawada,"Rajiv Gandhi Park, Vijayawada - APPCB","08-04-2025 20:00:00",16.509717,80.612222,SO2,8,14,10
India,Andhra_Pradesh,Vijayawada,"Rajiv Gandhi Park, Vijayawada - APPCB","08-04-2025 20:00:00",16.509717,80.612222,OZONE,6,36,26
India,Andhra_Pradesh,Chittoor,"Gangineni Cheruvu, Chittoor - APPCB","08-04-2025 20:00:00",13.204880,79.097889,CO,12,20,16
India,Andhra_Pradesh,Chittoor,"Gangineni Cheruvu, Chittoor - APPCB","08-04-2025 20:00:00",13.204880,79.097889,OZONE,21,38,27
India,Andhra_Pradesh,Rajamahendravaram,"Anand Kala Kshetram, Rajamahendravaram - APPCB","08-04-2025 20:00:00",16.9872867,81.7363176,PM2.5,10,33,21
India,Andhra_Pradesh,Rajamahendravaram,"Anand Kala Kshetram, Rajamahendravaram - APPCB","08-04-2025 20:00:00",16.9872867,81.7363176,SO2,10,12,11
India,Bihar,Patna,"Muradpur, Patna - BSPCB","08-04-2025 20:00:00",25.619651,85.147382,SO2,6,9,8
India,Bihar,Patna,"Rajbansi Nagar, Patna - BSPCB","08-04-2025 20:00:00",25.599486,85.113666,OZONE,30,84,65
India,Bihar,Patna,"Samanpura, Patna - BSPCB","08-04-2025 20:00:00",25.596727,85.085624,NH3,6,7,6
India,Bihar,Patna,"Samanpura, Patna - BSPCB","08-04-2025 20:00:00",25.596727,85.085624,SO2,3,4,4
India,Bihar,Patna,"Samanpura, Patna - BSPCB","08-04-2025 20:00:00",25.596727,85.085624,CO,35,41,38
India,Bihar,Rajgir,"Dangi Tola, Rajgir - BSPCB","08-04-2025 20:00:00",25.03280,85.41948,NO2,8,10,9
India,Bihar,Rajgir,"Dangi Tola, Rajgir - BSPCB","08-04-2025 20:00:00",25.03280,85.41948,OZONE,14,54,36
India,Bihar,Saharsa,"Police Line, Saharsa - BSPCB","08-04-2025 20:00:00",25.892357,86.590325,PM2.5,27,68,46
India,Bihar,Gaya,"Kareemganj, Gaya - BSPCB","08-04-2025 20:00:00",24.792403,84.992416,OZONE,2,25,12
India,Bihar,Gaya,"SFTI Kusdihra, Gaya - BSPCB","08-04-2025 20:00:00",24.762518,84.982348,PM2.5,26,98,53
India,Bihar,Gaya,"SFTI Kusdihra, Gaya - BSPCB","08-04-2025 20:00:00",24.762518,84.982348,CO,22,32,25
India,Bihar,Katihar,"Mirchaibari, Katihar - BSPCB","08-04-2025 20:00:00",25.560083,87.553265,PM10,14,59,29
India,Bihar,Katihar,"Mirchaibari, Katihar - BSPCB","08-04-2025 20:00:00",25.560083,87.553265,NH3,1,1,1
India,Bihar,Kishanganj,"SDM Office_Khagra, Kishanganj - BSPCB","08-04-2025 20:00:00",26.0881305,87.93840336,PM2.5,20,43,27
India,Chhattisgarh,Bhilai,"Hathkhoj, Bhilai - CECB","08-04-2025 20:00:00",21.224231,81.408350,PM2.5,45,118,79
India,Chhattisgarh,Bhilai,"Hathkhoj, Bhilai - CECB","08-04-2025 20:00:00",21.224231,81.408350,OZONE,12,33,30
India,Chhattisgarh,Bilaspur,"Mangala, Bilaspur - NTPC","08-04-2025 20:00:00",22.08815,82.13737,PM2.5,31,318,83
India,Chhattisgarh,Bilaspur,"Mangala, Bilaspur - NTPC","08-04-2025 20:00:00",22.08815,82.13737,SO2,13,33,20
India,Chhattisgarh,Chhal,"Nawapara SECL Colony, Chhal - CECB","08-04-2025 20:00:00",22.118125,83.140608,PM10,45,89,62
India,Chhattisgarh,Chhal,"Nawapara SECL Colony, Chhal - CECB","08-04-2025 20:00:00",22.118125,83.140608,CO,26,41,30
India,Chhattisgarh,Chhal,"Nawapara SECL Colony, Chhal - CECB","08-04-2025 20:00:00",22.118125,83.140608,OZONE,21,84,58
India,Bihar,"Bihar Sharif","D M Colony, Bihar Sharif - BSPCB","08-04-2025 20:00:00",25.204762,85.514960,PM10,NA,NA,NA
India,Bihar,"Bihar Sharif","D M Colony, Bihar Sharif - BSPCB","08-04-2025 20:00:00",25.204762,85.514960,SO2,9,10,10
India,Bihar,Buxar,"Charitra Van, Buxar - BSPCB","08-04-2025 20:00:00",25.567520,83.966379,PM2.5,NA,NA,NA
India,Bihar,Buxar,"Charitra Van, Buxar - BSPCB","08-04-2025 20:00:00",25.567520,83.966379,NH3,NA,NA,NA
India,Bihar,Buxar,"Charitra Van, Buxar - BSPCB","08-04-2025 20:00:00",25.567520,83.966379,CO,67,82,75
India,Bihar,Buxar,"Charitra Van, Buxar - BSPCB","08-04-2025 20:00:00",25.567520,83.966379,OZONE,12,24,18
India,Bihar,Chhapra,"Darshan Nagar, Chhapra - BSPCB","08-04-2025 20:00:00",25.7808257,84.7446768,PM10,NA,NA,NA
India,Chandigarh,Chandigarh,"Sector 22, Chandigarh - CPCC","08-04-2025 20:00:00",30.735567,76.775714,PM2.5,77,277,118
India,Chandigarh,Chandigarh,"Sector 22, Chandigarh - CPCC","08-04-2025 20:00:00",30.735567,76.775714,CO,46,136,65
India,Chandigarh,Chandigarh,"Sector-25, Chandigarh - CPCC","08-04-2025 20:00:00",30.751462,76.762879,PM10,85,190,143
India,Chandigarh,Chandigarh,"Sector-25, Chandigarh - CPCC","08-04-2025 20:00:00",30.751462,76.762879,NH3,17,43,29
India,Chhattisgarh,Bhilai,"32Bungalows, Bhilai - CECB","08-04-2025 20:00:00",21.194815,81.314770,CO,13,105,20
India,Bihar,Saharsa,"Police Line, Saharsa - BSPCB","08-04-2025 20:00:00",25.892357,86.590325,NO2,6,8,7
India,Bihar,Sasaram,"Dada Peer, Sasaram - BSPCB","08-04-2025 20:00:00",24.952822,84.002396,SO2,5,5,5
India,Bihar,Siwan,"Chitragupta Nagar, Siwan - BSPCB","08-04-2025 20:00:00",26.2271665,84.3570427,NH3,1,2,2
India,Bihar,Siwan,"Chitragupta Nagar, Siwan - BSPCB","08-04-2025 20:00:00",26.2271665,84.3570427,CO,74,109,96
India,Bihar,Patna,"Govt. High School Shikarpur, Patna - BSPCB","08-04-2025 20:00:00",25.592539,85.227158,PM2.5,38,74,56
India,Bihar,Patna,"Govt. High School Shikarpur, Patna - BSPCB","08-04-2025 20:00:00",25.592539,85.227158,NH3,10,14,12
India,Bihar,Patna,"IGSC Planetarium Complex, Patna - BSPCB","08-04-2025 20:00:00",25.610369,85.132568,PM2.5,95,200,125
India,Bihar,Bhagalpur,"Mayaganj, Bhagalpur - BSPCB","08-04-2025 20:00:00",25.265194,87.012947,PM10,38,172,117
India,Bihar,Bhagalpur,"Mayaganj, Bhagalpur - BSPCB","08-04-2025 20:00:00",25.265194,87.012947,NO2,9,11,10
India,Bihar,Bhagalpur,"Mayaganj, Bhagalpur - BSPCB","08-04-2025 20:00:00",25.265194,87.012947,NH3,NA,NA,NA
India,Bihar,Muzaffarpur,"Buddha Colony, Muzaffarpur - BSPCB","08-04-2025 20:00:00",26.11442,85.39813,OZONE,1,60,50
India,Chhattisgarh,Korba,"Urja Nagar, Korba - CECB","08-04-2025 20:00:00",22.348441,82.549611,PM2.5,82,311,176
India,Chhattisgarh,Korba,"Urja Nagar, Korba - CECB","08-04-2025 20:00:00",22.348441,82.549611,NO2,27,89,70
India,Chhattisgarh,Korba,"Urja Nagar, Korba - CECB","08-04-2025 20:00:00",22.348441,82.549611,SO2,8,18,10
India,Chhattisgarh,Kunjemura,"OP Jindal School, Kunjemura - CECB","08-04-2025 20:00:00",22.126650,83.483212,PM2.5,NA,NA,NA
India,Chhattisgarh,Milupara,"Govt. Higher Secondary School, Milupara - CECB","08-04-2025 20:00:00",22.1910172,83.5197009,PM2.5,17,68,38
India,Chhattisgarh,Milupara,"Govt. Higher Secondary School, Milupara - CECB","08-04-2025 20:00:00",22.1910172,83.5197009,CO,17,57,23
India,Chhattisgarh,Raipur,"AIIMS, Raipur - CECB","08-04-2025 20:00:00",21.258815,81.578979,NO2,30,77,53
India,Chhattisgarh,Raipur,"AIIMS, Raipur - CECB","08-04-2025 20:00:00",21.258815,81.578979,CO,26,60,31
India,Delhi,Delhi,"Jawaharlal Nehru Stadium, Delhi - DPCC","08-04-2025 20:00:00",28.580280,77.233829,PM2.5,70,237,128
India,Delhi,Delhi,"Jawaharlal Nehru Stadium, Delhi - DPCC","08-04-2025 20:00:00",28.580280,77.233829,NH3,17,25,21
India,Delhi,Delhi,"Lodhi Road, Delhi - IITM","08-04-2025 20:00:00",28.588333,77.221667,PM2.5,141,305,231
India,Delhi,Delhi,"Lodhi Road, Delhi - IITM","08-04-2025 20:00:00",28.588333,77.221667,PM10,146,215,184
India,Delhi,Delhi,"Lodhi Road, Delhi - IMD","08-04-2025 20:00:00",28.5918245,77.2273074,PM2.5,NA,NA,NA
India,Delhi,Delhi,"Lodhi Road, Delhi - IMD","08-04-2025 20:00:00",28.5918245,77.2273074,NO2,NA,NA,NA
India,Delhi,Delhi,"Lodhi Road, Delhi - IMD","08-04-2025 20:00:00",28.5918245,77.2273074,CO,22,38,27
India,Delhi,Delhi,"Mandir Marg, Delhi - DPCC","08-04-2025 20:00:00",28.636429,77.201067,PM10,115,191,153
India,Chhattisgarh,Raipur,"AIIMS, Raipur - CECB","08-04-2025 20:00:00",21.258815,81.578979,OZONE,4,45,32
India,Chhattisgarh,Raipur,"Krishak Nagar, Raipur - CECB","08-04-2025 20:00:00",21.237755,81.705301,PM2.5,1,37,13
India,Chhattisgarh,Raipur,"Krishak Nagar, Raipur - CECB","08-04-2025 20:00:00",21.237755,81.705301,NO2,9,25,19
India,Chhattisgarh,Raipur,"Siltara Phase-II, Raipur - CECB","08-04-2025 20:00:00",21.371751,81.664929,NH3,3,3,3
India,Chhattisgarh,Tumidih,"OP Jindal Industrial Park, Tumidih - CECB","08-04-2025 20:00:00",22.06631475,83.33820077,NH3,NA,NA,NA
India,Chhattisgarh,Tumidih,"OP Jindal Industrial Park, Tumidih - CECB","08-04-2025 20:00:00",22.06631475,83.33820077,SO2,NA,NA,NA
India,Delhi,Delhi,"Nehru Nagar, Delhi - DPCC","08-04-2025 20:00:00",28.567890,77.250515,SO2,13,42,25
India,Delhi,Delhi,"North Campus, DU, Delhi - IMD","08-04-2025 20:00:00",28.6573814,77.1585447,CO,107,141,112
India,Delhi,Delhi,"Okhla Phase-2, Delhi - DPCC","08-04-2025 20:00:00",28.530785,77.271255,PM10,153,401,253
India,Delhi,Delhi,"Okhla Phase-2, Delhi - DPCC","08-04-2025 20:00:00",28.530785,77.271255,NH3,10,16,12
India,Delhi,Delhi,"Patparganj, Delhi - DPCC","08-04-2025 20:00:00",28.623763,77.287209,PM10,164,470,266
India,Delhi,Delhi,"Patparganj, Delhi - DPCC","08-04-2025 20:00:00",28.623763,77.287209,NO2,11,145,62
India,Delhi,Delhi,"Anand Vihar, Delhi - DPCC","08-04-2025 20:00:00",28.647622,77.3158090,OZONE,1,52,32
India,Delhi,Delhi,"Ashok Vihar, Delhi - DPCC","08-04-2025 20:00:00",28.695381,77.181665,PM2.5,110,384,231
India,Delhi,Delhi,"Bawana, Delhi - DPCC","08-04-2025 20:00:00",28.776200,77.051074,PM2.5,140,353,251
India,Delhi,Delhi,"Bawana, Delhi - DPCC","08-04-2025 20:00:00",28.776200,77.051074,NH3,7,10,8
India,Delhi,Delhi,"Bawana, Delhi - DPCC","08-04-2025 20:00:00",28.776200,77.051074,OZONE,11,306,240
India,Delhi,Delhi,"Burari Crossing, Delhi - IMD","08-04-2025 20:00:00",28.7256504,77.2011573,PM10,138,303,190
India,Delhi,Delhi,"CRRI Mathura Road, Delhi - IMD","08-04-2025 20:00:00",28.5512005,77.2735737,CO,16,113,29
India,Delhi,Delhi,"CRRI Mathura Road, Delhi - IMD","08-04-2025 20:00:00",28.5512005,77.2735737,OZONE,47,306,253
India,Delhi,Delhi,"Chandni Chowk, Delhi - IITM","08-04-2025 20:00:00",28.656756,77.227234,PM2.5,NA,NA,NA
India,Delhi,Delhi,"Chandni Chowk, Delhi - IITM","08-04-2025 20:00:00",28.656756,77.227234,SO2,NA,NA,NA
India,Delhi,Delhi,"Dr. Karni Singh Shooting Range, Delhi - DPCC","08-04-2025 20:00:00",28.498571,77.264840,PM10,151,304,212
India,Delhi,Delhi,"Dr. Karni Singh Shooting Range, Delhi - DPCC","08-04-2025 20:00:00",28.498571,77.264840,NO2,37,131,60
India,Delhi,Delhi,"Pusa, Delhi - IMD","08-04-2025 20:00:00",28.636110,77.173332,OZONE,1,185,148
India,Delhi,Delhi,"R K Puram, Delhi - DPCC","08-04-2025 20:00:00",28.563262,77.186937,PM2.5,123,328,239
India,Delhi,Delhi,"R K Puram, Delhi - DPCC","08-04-2025 20:00:00",28.563262,77.186937,NO2,20,135,68
India,Delhi,Delhi,"Rohini, Delhi - DPCC","08-04-2025 20:00:00",28.732528,77.119920,NO2,20,144,67
India,Delhi,Delhi,"Rohini, Delhi - DPCC","08-04-2025 20:00:00",28.732528,77.119920,SO2,16,44,26
India,Delhi,Delhi,"Rohini, Delhi - DPCC","08-04-2025 20:00:00",28.732528,77.119920,CO,27,84,39
India,Delhi,Delhi,"Dwarka-Sector 8, Delhi - DPCC ","08-04-2025 20:00:00",28.5710274,77.0719006,CO,46,116,60
India,Delhi,Delhi,"IHBAS, Dilshad Garden, Delhi - CPCB","08-04-2025 20:00:00",28.6811736,77.3025234,PM10,133,187,161
India,Delhi,Delhi,"ITO, Delhi - CPCB","08-04-2025 20:00:00",28.628624,77.241060,NO2,10,226,84
India,Delhi,Delhi,"ITO, Delhi - CPCB","08-04-2025 20:00:00",28.628624,77.241060,SO2,7,34,21
India,Delhi,Delhi,"ITO, Delhi - CPCB","08-04-2025 20:00:00",28.628624,77.241060,CO,31,114,40
India,Delhi,Delhi,"Mundka, Delhi - DPCC","08-04-2025 20:00:00",28.684678,77.076574,NO2,51,137,77
India,Delhi,Delhi,"Mundka, Delhi - DPCC","08-04-2025 20:00:00",28.684678,77.076574,NH3,7,12,9
India,Delhi,Delhi,"Najafgarh, Delhi - DPCC","08-04-2025 20:00:00",28.570173,76.933762,NO2,18,184,88
India,Delhi,Delhi,"Narela, Delhi - DPCC","08-04-2025 20:00:00",28.822836,77.101981,CO,18,69,28
India,Delhi,Delhi,"Sirifort, Delhi - CPCB","08-04-2025 20:00:00",28.5504249,77.2159377,PM10,162,379,258
India,Delhi,Delhi,"Sirifort, Delhi - CPCB","08-04-2025 20:00:00",28.5504249,77.2159377,NH3,9,21,13
India,Delhi,Delhi,"Sirifort, Delhi - CPCB","08-04-2025 20:00:00",28.5504249,77.2159377,SO2,72,80,76
India,Delhi,Delhi,"Sirifort, Delhi - CPCB","08-04-2025 20:00:00",28.5504249,77.2159377,CO,36,126,51
India,Delhi,Delhi,"Sonia Vihar, Delhi - DPCC","08-04-2025 20:00:00",28.710508,77.249485,NO2,18,109,53
India,Delhi,Delhi,"Sri Aurobindo Marg, Delhi - DPCC","08-04-2025 20:00:00",28.531346,77.190156,NH3,11,16,13
India,Delhi,Delhi,"Vivek Vihar, Delhi - DPCC","08-04-2025 20:00:00",28.672342,77.315260,SO2,10,70,21
India,Delhi,Delhi,"Vivek Vihar, Delhi - DPCC","08-04-2025 20:00:00",28.672342,77.315260,OZONE,18,275,214
India,Delhi,Delhi,"Wazirpur, Delhi - DPCC","08-04-2025 20:00:00",28.699793,77.165453,NH3,8,17,12
India,Delhi,Delhi,"Wazirpur, Delhi - DPCC","08-04-2025 20:00:00",28.699793,77.165453,SO2,24,72,42
India,Gujarat,Ahmedabad,"Gyaspur, Ahmedabad - IITM","08-04-2025 20:00:00",22.977134,72.553024,NH3,1,44,7
India,Gujarat,Ahmedabad,"Gyaspur, Ahmedabad - IITM","08-04-2025 20:00:00",22.977134,72.553024,CO,13,111,25
India,Gujarat,Ahmedabad,"Maninagar, Ahmedabad - GPCB","08-04-2025 20:00:00",23.002657,72.591912,CO,10,98,39
India,Gujarat,Ahmedabad,"Maninagar, Ahmedabad - GPCB","08-04-2025 20:00:00",23.002657,72.591912,OZONE,5,36,29
India,Gujarat,Ahmedabad,"Raikhad, Ahmedabad - IITM","08-04-2025 20:00:00",23.020509,72.579261,PM2.5,42,113,60
India,Gujarat,Ahmedabad,"SVPI Airport Hansol, Ahmedabad - IITM","08-04-2025 20:00:00",23.076793,72.627874,CO,10,103,21
India,Gujarat,Ankleshwar,"GIDC, Ankleshwar - GPCB","08-04-2025 20:00:00",21.613267,73.010555,OZONE,31,40,33
India,Gujarat,Gandhinagar,"GIFT City, Gandhinagar - IITM","08-04-2025 20:00:00",23.163798,72.677768,PM2.5,53,317,107
India,Gujarat,Gandhinagar,"IIPHG Lekawada, Gandhinagar - IITM","08-04-2025 20:00:00",23.243639,72.68994,NO2,23,131,64
India,Gujarat,Gandhinagar,"IIPHG Lekawada, Gandhinagar - IITM","08-04-2025 20:00:00",23.243639,72.68994,NH3,2,31,8
India,Gujarat,Gandhinagar,"IIPHG Lekawada, Gandhinagar - IITM","08-04-2025 20:00:00",23.243639,72.68994,SO2,5,17,9
India,Gujarat,Gandhinagar,"Sector-10, Gandhinagar - GPCB","08-04-2025 20:00:00",23.221714,72.654328,PM10,37,241,104
India,Gujarat,Gandhinagar,"Sector-10, Gandhinagar - GPCB","08-04-2025 20:00:00",23.221714,72.654328,NO2,21,25,23
India,Gujarat,Gandhinagar,"Sector-10, Gandhinagar - GPCB","08-04-2025 20:00:00",23.221714,72.654328,CO,6,106,6
India,Gujarat,Nandesari,"GIDC, Nandesari - Nandesari Ind. Association","08-04-2025 20:00:00",22.410802,73.097923,NO2,NA,NA,NA
India,Gujarat,Vatva,"Phase-4 GIDC, Vatva - GPCB","08-04-2025 20:00:00",22.969611,72.643500,PM2.5,35,289,104
India,Gujarat,Vatva,"Phase-4 GIDC, Vatva - GPCB","08-04-2025 20:00:00",22.969611,72.643500,NH3,2,13,5
India,Gujarat,Vatva,"Phase-4 GIDC, Vatva - GPCB","08-04-2025 20:00:00",22.969611,72.643500,CO,55,108,58
India,Karnataka,Bengaluru,"Bapuji Nagar, Bengaluru - KSPCB","08-04-2025 20:00:00",12.951913,77.539784,NH3,1,3,1
India,Karnataka,Bengaluru,"Hombegowda Nagar, Bengaluru - KSPCB","08-04-2025 20:00:00",12.938539,77.590100,NO2,15,82,27
India,Karnataka,Bengaluru,"Hombegowda Nagar, Bengaluru - KSPCB","08-04-2025 20:00:00",12.938539,77.590100,NH3,1,2,2
India,Karnataka,Bengaluru,"Hombegowda Nagar, Bengaluru - KSPCB","08-04-2025 20:00:00",12.938539,77.590100,SO2,11,26,15
India,Karnataka,Bengaluru,"Jayanagar 5th Block, Bengaluru - KSPCB","08-04-2025 20:00:00",12.920984,77.584908,OZONE,2,13,6
India,Haryana,Gurugram,"NISE Gwal Pahari, Gurugram - IMD","08-04-2025 20:00:00",28.422681,77.148944,OZONE,48,188,160
India,Haryana,Panchgaon,"Amity University, Panchgaon - IITM","08-04-2025 20:00:00",28.3153,76.9143,NO2,42,76,62
India,"Himachal Pradesh",Baddi,"HIMUDA Complex Phase-1, Baddi - HPPCB","08-04-2025 20:00:00",30.943887,76.801991,PM2.5,50,157,79
India,Karnataka,Bengaluru,"Kasturi Nagar, Bengaluru - KSPCB","08-04-2025 20:00:00",13.003872,77.664217,SO2,8,10,9
India,Karnataka,Bengaluru,"Peenya, Bengaluru - CPCB","08-04-2025 20:00:00",13.0270199,77.494094,PM10,54,132,77
India,Karnataka,Bengaluru,"Sanegurava Halli, Bengaluru - KSPCB","08-04-2025 20:00:00",12.990328,77.5431385,NO2,22,38,25
India,Gujarat,Ahmedabad,"Raikhad, Ahmedabad - IITM","08-04-2025 20:00:00",23.020509,72.579261,CO,1,161,16
India,Gujarat,Ahmedabad,"Raikhad, Ahmedabad - IITM","08-04-2025 20:00:00",23.020509,72.579261,OZONE,4,79,65
India,Gujarat,Ahmedabad,"SAC ISRO Satellite, Ahmedabad - IITM","08-04-2025 20:00:00",23.023389,72.515201,PM2.5,77,261,135
India,Karnataka,Belgaum,"Ramteerth Nagar, Belgaum - KSPCB","08-04-2025 20:00:00",15.888653,74.541751,PM10,NA,NA,NA
India,Karnataka,Belgaum,"Ramteerth Nagar, Belgaum - KSPCB","08-04-2025 20:00:00",15.888653,74.541751,OZONE,19,20,19
India,Karnataka,Bengaluru,"Bapuji Nagar, Bengaluru - KSPCB","08-04-2025 20:00:00",12.951913,77.539784,PM10,36,166,83
India,Kerala,Thiruvananthapuram,"Kariavattom, Thiruvananthapuram - Kerala PCB","08-04-2025 20:00:00",8.563700,76.886500,OZONE,36,37,37
India,Kerala,Thiruvananthapuram,"Plammoodu, Thiruvananthapuram - Kerala PCB","08-04-2025 20:00:00",8.5149093,76.9435879,CO,13,74,30
India,Kerala,Thrissur,"Corporation Ground, Thrissur - Kerala PCB","08-04-2025 20:00:00",10.532400,76.215900,PM2.5,46,57,52
India,"Madhya Pradesh",Bhopal,"Idgah Hills, Bhopal - MPPCB","08-04-2025 20:00:00",23.264759,77.381568,PM10,73,137,101
India,"Madhya Pradesh",Bhopal,"Idgah Hills, Bhopal - MPPCB","08-04-2025 20:00:00",23.264759,77.381568,CO,12,60,31
India,"Madhya Pradesh",Bhopal,"Paryavaran Parisar, Bhopal - MPPCB","08-04-2025 20:00:00",23.210494,77.425409,NH3,2,35,9
India,"Madhya Pradesh",Bhopal,"Paryavaran Parisar, Bhopal - MPPCB","08-04-2025 20:00:00",23.210494,77.425409,OZONE,7,80,50
India,Karnataka,Mysuru,"Hebbal 1st Stage, Mysuru - KSPCB","08-04-2025 20:00:00",12.21041,76.37376,NO2,10,29,20
India,Karnataka,Mysuru,"Hebbal 1st Stage, Mysuru - KSPCB","08-04-2025 20:00:00",12.21041,76.37376,OZONE,5,119,75
India,Karnataka,Shivamogga,"Vinoba Nagara, Shivamogga - KSPCB","08-04-2025 20:00:00",13.940000,75.555917,PM10,40,64,52
India,Karnataka,Shivamogga,"Vinoba Nagara, Shivamogga - KSPCB","08-04-2025 20:00:00",13.940000,75.555917,NH3,2,3,2
India,Karnataka,Tumakuru,"Thimmalapura, Tumakuru - KSPCB","08-04-2025 20:00:00",13.377516,77.099072,PM10,131,192,159
India,Karnataka,Tumakuru,"Thimmalapura, Tumakuru - KSPCB","08-04-2025 20:00:00",13.377516,77.099072,NO2,18,19,18
India,Karnataka,Tumakuru,"Thimmalapura, Tumakuru - KSPCB","08-04-2025 20:00:00",13.377516,77.099072,CO,56,59,57
India,Karnataka,Yadgir,"Collector Office, Yadgir - KSPCB","08-04-2025 20:00:00",16.7602,77.1428,NO2,37,90,52
India,Karnataka,Kalaburagi,"Lal Bahadur Shastri Nagar, Kalaburagi - KSPCB","08-04-2025 20:00:00",17.321993,76.822628,NO2,12,13,12
India,Karnataka,Kalaburagi,"Mahatma Basaveswar Colony, Kalaburgi - KSPCB","08-04-2025 20:00:00",17.336318,76.847397,SO2,3,7,4
India,Karnataka,Koppal,"Diwator Nagar, Koppal - KSPCB","08-04-2025 20:00:00",15.347630,76.181767,NO2,11,22,15
India,Karnataka,Koppal,"Diwator Nagar, Koppal - KSPCB","08-04-2025 20:00:00",15.347630,76.181767,NH3,1,3,2
India,Karnataka,Madikeri,"Stuart Hill, Madikeri - KSPCB","08-04-2025 20:00:00",12.415911,75.735050,NO2,7,227,83
India,Karnataka,Madikeri,"Stuart Hill, Madikeri - KSPCB","08-04-2025 20:00:00",12.415911,75.735050,CO,12,22,15
India,Karnataka,Mangalore,"Kadri, Mangalore - KSPCB","08-04-2025 20:00:00",12.889250,74.853000,PM2.5,35,50,40
India,"Madhya Pradesh",Jabalpur,"Govindh Bhavan Colony, Jabalpur - JMC","08-04-2025 20:00:00",23.163174,79.973061,NO2,35,58,45
India,"Madhya Pradesh",Jabalpur,"Gupteshwar, Jabalpur - JMC","08-04-2025 20:00:00",23.142888,79.916147,PM10,56,127,90
India,"Madhya Pradesh",Jabalpur,"Gupteshwar, Jabalpur - JMC","08-04-2025 20:00:00",23.142888,79.916147,NH3,2,4,3
India,"Madhya Pradesh",Jabalpur,"Marhatal, Jabalpur - MPPCB","08-04-2025 20:00:00",23.168606,79.932247,SO2,5,28,12
India,"Madhya Pradesh",Katni,"Gole Bazar, Katni - MPPCB","08-04-2025 20:00:00",23.50016,80.23284,NH3,2,4,3
India,"Madhya Pradesh",Katni,"Gole Bazar, Katni - MPPCB","08-04-2025 20:00:00",23.50016,80.23284,SO2,21,36,24
India,"Madhya Pradesh",Katni,"Gole Bazar, Katni - MPPCB","08-04-2025 20:00:00",23.50016,80.23284,CO,30,88,47
India,"Madhya Pradesh",Gwalior,"Maharaj Bada, Gwalior - MPPCB","08-04-2025 20:00:00",26.200388,78.147714,SO2,11,36,19
India,"Madhya Pradesh",Indore,"Airport Area, Indore - IMC","08-04-2025 20:00:00",22.7289,75.8076,SO2,16,16,16
India,"Madhya Pradesh",Indore,"Airport Area, Indore - IMC","08-04-2025 20:00:00",22.7289,75.8076,CO,10,14,10
India,"Madhya Pradesh",Indore,"Chhoti Gwaltoli, Indore - MPPCB","08-04-2025 20:00:00",22.4310,75.5213,OZONE,16,93,68
India,"Madhya Pradesh",Indore,"Regional Park, Indore - IMC","08-04-2025 20:00:00",22.6780,75.8559,SO2,58,64,62
India,"Madhya Pradesh",Indore,"Residency Area, Indore - IMC","08-04-2025 20:00:00",22.7084,75.8815,PM10,58,174,105
India,Karnataka,Dharwad,"Kalabhavan, Dharwad - KSPCB","08-04-2025 20:00:00",15.459706,75.008381,NO2,21,26,23
India,Karnataka,Dharwad,"Kalabhavan, Dharwad - KSPCB","08-04-2025 20:00:00",15.459706,75.008381,SO2,2,5,3
India,Karnataka,Gadag,"Panchal Nagar, Gadag - KSPCB","08-04-2025 20:00:00",15.411456,75.638133,OZONE,24,66,51
India,Karnataka,Hubballi,"Lingaraj Nagar, Hubballi - KSPCB","08-04-2025 20:00:00",15.3714823,75.1160168,PM10,45,53,47
India,Karnataka,Hubballi,"Lingaraj Nagar, Hubballi - KSPCB","08-04-2025 20:00:00",15.3714823,75.1160168,NO2,7,11,9
India,Karnataka,Hubballi,"Lingaraj Nagar, Hubballi - KSPCB","08-04-2025 20:00:00",15.3714823,75.1160168,NH3,1,2,1
India,Karnataka,Hubballi,"Lingaraj Nagar, Hubballi - KSPCB","08-04-2025 20:00:00",15.3714823,75.1160168,SO2,1,8,2
India,Karnataka,Yadgir,"Collector Office, Yadgir - KSPCB","08-04-2025 20:00:00",16.7602,77.1428,NH3,3,5,4
India,Kerala,Eloor,"Udyogamandal, Eloor - Kerala PCB","08-04-2025 20:00:00",10.073232,76.302765,OZONE,11,22,16
India,Kerala,Kollam,"Polayathode, Kollam - Kerala PCB","08-04-2025 20:00:00",8.8787,76.6073,NO2,9,10,9
India,Kerala,Kollam,"Polayathode, Kollam - Kerala PCB","08-04-2025 20:00:00",8.8787,76.6073,SO2,1,5,2
India,Kerala,Thiruvananthapuram,"Kariavattom, Thiruvananthapuram - Kerala PCB","08-04-2025 20:00:00",8.563700,76.886500,PM2.5,45,50,47
India,Karnataka,Bidar,"Naubad, Bidar - KSPCB","08-04-2025 20:00:00",17.930306,77.482194,PM10,NA,NA,NA
India,Karnataka,Bidar,"Naubad, Bidar - KSPCB","08-04-2025 20:00:00",17.930306,77.482194,OZONE,12,18,15
India,Karnataka,Chamarajanagar,"Urban, Chamarajanagar - KSPCB","08-04-2025 20:00:00",11.55358,76.55521,SO2,4,8,6
India,Karnataka,Chikkaballapur,"Chikkaballapur Rural, Chikkaballapur - KSPCB","08-04-2025 20:00:00",13.428828,77.731418,OZONE,22,37,26
India,Karnataka,Chikkamagaluru,"Kalyana Nagara, Chikkamagaluru - KSPCB","08-04-2025 20:00:00",13.328028,75.797056,SO2,NA,NA,NA
India,"Madhya Pradesh",Bhopal,"T T Nagar, Bhopal - MPPCB","08-04-2025 20:00:00",23.233584,77.400574,SO2,7,62,25
India,"Madhya Pradesh",Damoh,"Shrivastav Colony, Damoh - MPPCB","08-04-2025 20:00:00",23.81748678,79.446246,PM10,NA,NA,NA
India,"Madhya Pradesh",Gwalior,"City Center, Gwalior - MPPCB","08-04-2025 20:00:00",26.203442,78.193251,NH3,2,3,2
India,"Madhya Pradesh",Gwalior,"City Center, Gwalior - MPPCB","08-04-2025 20:00:00",26.203442,78.193251,OZONE,39,178,124
India,"Madhya Pradesh",Gwalior,"Deen Dayal Nagar, Gwalior - MPPCB","08-04-2025 20:00:00",26.259242,78.216432,SO2,14,18,16
India,"Madhya Pradesh",Sagar,"Civil Lines, Sagar - MPPCB","08-04-2025 20:00:00",23.838586,78.759431,OZONE,13,60,43
India,"Madhya Pradesh",Sagar,"Deen Dayal Nagar, Sagar - MPPCB","08-04-2025 20:00:00",23.8640158,78.80289321,NO2,7,83,26
India,"Madhya Pradesh",Singrauli,"Suryakiran Bhawan NCL, Singrauli - MPPCB","08-04-2025 20:00:00",24.108970,82.645580,PM2.5,82,308,151
India,"Madhya Pradesh",Singrauli,"Suryakiran Bhawan NCL, Singrauli - MPPCB","08-04-2025 20:00:00",24.108970,82.645580,OZONE,4,246,178
India,"Madhya Pradesh",Ujjain,"Mahakaleshwar Temple, Ujjain - MPPCB","08-04-2025 20:00:00","23.182719 ","75.768218 ",OZONE,46,60,48
India,Maharashtra,Ahmednagar,"Tarakpur, Ahmednagar - MPCB","08-04-2025 20:00:00",19.10122,74.73339,PM10,65,356,132
